,date,time,city,state,country,shape,duration (seconds),duration (mins),latitude,longitude 
0,1949-10-10,20:30:00,san marcos,tx,us,cylinder,2700,45.0,29.8830556,-97.9411111
3,1956-10-10,21:00:00,edna,tx,us,circle,20,5.0,28.9783333,-96.6458333
4,1960-10-10,20:00:00,kaneohe,hi,us,light,900,20.0,21.4180556,-157.8036111
5,1961-10-10,19:00:00,bristol,tn,us,sphere,300,3.0,36.595,-82.1888889
7,1965-10-10,23:45:00,norwalk,ct,us,disk,1200,3.0,41.1175,-73.4083333
8,1966-10-10,20:00:00,pell city,al,us,disk,180,30.0,33.5861111,-86.2861111
9,1966-10-10,21:00:00,live oak,fl,us,disk,120,3.0,30.2947222,-82.9841667
10,1968-10-10,13:00:00,hawthorne,ca,us,circle,300,30.0,33.9163889,-118.3516667
11,1968-10-10,19:00:00,brevard,nc,us,fireball,180,20.0,35.2333333,-82.7344444
12,1970-10-10,16:00:00,bellmore,ny,us,disk,1800,2.0,40.6686111,-73.5275
14,1971-10-10,21:00:00,lexington,nc,us,oval,30,45.0,35.8238889,-80.2536111
15,1972-10-10,19:00:00,harlan county,ky,us,circle,1200,56.0,36.8430556,-83.3219444
16,1972-10-10,22:30:00,west bloomfield,mi,us,disk,120,1.0,42.5377778,-83.2330556
17,1973-10-10,19:00:00,niantic,ct,us,disk,1800,30.0,41.3252778,-72.1936111
19,1974-10-10,19:30:00,hudson,ma,us,other,2700,5.0,42.3916667,-71.5666667
21,1974-10-10,23:00:00,hudson,ks,us,light,1200,3.0,38.1055556,-98.6597222
22,1975-10-10,17:00:00,north charleston,sc,us,light,360,30.0,32.8544444,-79.975
23,1976-10-10,20:30:00,washougal,wa,us,oval,60,3.0,45.5827778,-122.3522222
25,1977-10-10,12:00:00,san antonio,tx,us,other,30,35.0,29.4238889,-98.4933333
26,1977-10-10,22:00:00,louisville,ky,us,light,30,1.0,38.2541667,-85.7594444
28,1979-10-10,00:00:00,poughkeepsie,ny,us,chevron,900,10.0,41.7002778,-73.9213889
30,1979-10-10,22:00:00,san diego,ca,us,oval,180,2.0,32.7152778,-117.1563889
31,1979-10-10,22:00:00,security,co,us,unknown,1800,5.0,38.7583333,-104.7425
32,1980-10-10,19:00:00,houston,tx,us,sphere,180,1.0,29.7630556,-95.3630556
33,1980-10-10,22:00:00,dallas,tx,us,unknown,300,2.0,32.7833333,-96.8
34,1980-10-10,23:30:00,manchester,nh,us,light,300,30.0,42.9955556,-71.4552778
36,1984-10-10,05:00:00,houston,tx,us,circle,60,1.0,29.7630556,-95.3630556
37,1984-10-10,12:00:00,traverse city,mi,us,other,120,10.0,44.7630556,-85.6205556
41,1988-10-10,18:00:00,milwaukee,wi,us,triangle,600,1.0,43.0388889,-87.9063889
42,1988-10-10,21:00:00,new gloucester,me,us,unknown,120,2.0,43.9627778,-70.2830556
43,1988-10-10,22:00:00,boulder,co,us,light,60,5.0,40.015,-105.27
44,1988-10-10,22:45:00,seattle (ballard area),wa,us,unknown,2,1.0,47.6063889,-122.3308333
45,1989-10-10,00:00:00,calabasas,ca,us,disk,300,3.0,34.1577778,-118.6375
46,1989-10-10,21:00:00,centralia,wa,us,triangle,60,5.0,46.7163889,-122.9530556
48,1990-10-10,21:00:00,ashburn,ga,us,triangle,120,4.0,31.7058333,-83.6533333
49,1991-10-10,22:00:00,frisco,nc,us,unknown,1800,30.0,35.235,-75.6288889
50,1991-10-10,22:00:00,harrisburg,pa,us,triangle,600,5.0,40.2736111,-76.8847222
51,1992-10-10,17:00:00,panama city,fl,us,formation,3600,1.0,30.1586111,-85.6602778
52,1992-10-10,18:00:00,stafford,tx,us,unknown,10,5.0,29.6158333,-95.5575
54,1992-10-10,22:00:00,weatherford,tx,us,unknown,30,30.0,32.7591667,-97.7969444
56,1993-10-10,22:00:00,peoria,il,us,light,8,45.0,40.6936111,-89.5888889
57,1993-10-10,23:00:00,carthage,tn,us,other,60,10.0,36.2522222,-85.9516667
59,1994-10-10,18:30:00,burnt hills,ny,us,rectangle,120,2.0,42.9097222,-73.8955556
60,1994-10-10,22:00:00,pinebergen,ar,us,light,5,15.0,34.1027778,-91.9922222
64,1996-10-10,03:20:00,higginsville,mo,us,triangle,3,1.0,39.0725,-93.7169444
67,1996-10-10,22:30:00,monroe county,oh,us,cylinder,60,3.0,39.4402778,-84.3622222
68,1997-10-10,16:00:00,connersville,in,us,delta,14400,5.0,39.6411111,-85.1411111
69,1997-10-10,17:00:00,mesa,az,us,sphere,30,4.0,33.4222222,-111.8219444
70,1997-10-10,20:00:00,bonaire,ga,us,triangle,300,45.0,32.5436111,-83.5961111
71,1997-10-10,21:00:00,austin,mn,us,other,3600,3.0,43.6666667,-92.9744444
72,1998-10-10,02:30:00,hollywood,ca,us,changing,300,10.0,34.0983333,-118.3258333
73,1998-10-10,03:30:00,phoenix (north part),az,us,fireball,15,30.0,33.4483333,-112.0733333
74,1998-10-10,13:15:00,elgin,il,us,cylinder,1800,30.0,42.0372222,-88.2811111
75,1998-10-10,17:30:00,las vegas,nv,us,cigar,600,45.0,36.175,-115.1363889
76,1998-10-10,17:30:00,las vegas,nv,us,circle,2700,10.0,36.175,-115.1363889
78,1998-10-10,20:30:00,spokane (about 30 miles sw of&#44i-90&#44 maybe mm 254),wa,us,triangle,600,4.0,47.6588889,-117.425
79,1998-10-10,20:50:00,mooresville,nc,us,light,2,5.0,35.5847222,-80.8102778
81,1998-10-10,23:50:00,delano,tn,us,fireball,15,35.0,35.265,-84.5533333
82,1999-10-10,00:01:00,martinez,ca,us,changing,3600,15.0,38.0194444,-122.1330556
83,1999-10-10,04:00:00,kansas city,ks,us,unknown,600,30.0,39.1141667,-94.6272222
84,1999-10-10,06:00:00,dallas,tx,us,other,10,43.0,32.7833333,-96.8
85,1999-10-10,11:00:00,san diego,ca,us,fireball,3600,5.0,32.7152778,-117.1563889
87,1999-10-10,20:35:00,hayward,ca,us,circle,90,2.0,37.6688889,-122.0797222
88,1999-10-10,21:00:00,rachel,nv,us,light,10800,30.0,37.6447222,-115.7427778
89,1999-10-10,21:30:00,humphrey,ne,us,sphere,300,2.0,41.6916667,-97.4841667
91,1999-10-10,22:30:00,elgin,or,us,chevron,240,30.0,45.565,-117.9163889
92,1999-10-10,23:45:00,lewiston,mi,us,oval,2700,10.0,44.8838889,-84.3055556
94,2000-10-10,06:15:00,boynton beach,fl,us,other,10,5.0,26.525,-80.0666667
98,2000-10-10,20:30:00,brinktown,mo,us,light,1800,23.0,38.1266667,-92.0844444
99,2000-10-10,21:30:00,florence,ky,us,light,5,20.0,38.9988889,-84.6266667
100,2000-10-10,21:30:00,seattle (west),wa,us,unknown,10,5.0,47.6063889,-122.3308333
101,2000-10-10,22:00:00,port orchard,wa,us,diamond,60,15.0,47.5405556,-122.635
105,2001-10-10,20:35:00,hayward,ca,us,circle,120,1.0,37.6688889,-122.0797222
106,2001-10-10,21:15:00,ottumwa,ia,us,rectangle,300,15.0,41.0041667,-92.3736111
107,2001-10-10,21:30:00,fresno,ca,us,changing,900,12.0,36.7477778,-119.7713889
108,2001-10-10,22:00:00,phoenix,az,us,triangle,60,1.0,33.4483333,-112.0733333
110,2002-10-10,00:01:00,hayward,wi,us,flash,43,30.0,46.0130556,-91.4844444
111,2002-10-10,02:00:00,philomath,or,us,unknown,5,30.0,44.5402778,-123.3663889
113,2002-10-10,06:00:00,seattle,wa,us,sphere,90,5.0,47.6063889,-122.3308333
116,2002-10-10,21:00:00,portland,or,us,circle,120,20.0,45.5236111,-122.675
118,2003-10-10,12:00:00,alhambra,ca,us,oval,300,5.0,34.0952778,-118.1261111
119,2003-10-10,18:00:00,indianapolis,in,us,sphere,1800,10.0,39.7683333,-86.1580556
120,2003-10-10,19:15:00,centreville,va,us,other,600,10.0,38.8402778,-77.4291667
121,2003-10-10,20:05:00,grand view,id,us,light,15,10.0,42.9897222,-116.0925
123,2003-10-10,21:10:00,crescent beach,sc,us,formation,37800,6.0,33.8075,-78.7011111
124,2003-10-10,22:00:00,albuquerque,nm,us,light,180,2.0,35.0844444,-106.6505556
126,2003-10-10,23:25:00,gleason,wi,us,sphere,1800,5.0,45.3088889,-89.4963889
127,2004-10-10,02:50:00,mahwah,nj,us,triangle,180,4.0,41.0886111,-74.1441667
130,2004-10-10,04:18:00,terre haute,in,us,sphere,5,30.0,39.4666667,-87.4138889
131,2004-10-10,08:30:00,indianapolis,in,us,oval,15,10.0,39.7683333,-86.1580556
134,2004-10-10,15:00:00,berkeley,ca,us,unknown,180,3.0,37.8716667,-122.2716667
135,2004-10-10,15:00:00,rock island,il,us,sphere,3600,1.0,41.5094444,-90.5786111
138,2004-10-10,19:00:00,ripley,ny,us,circle,900,2.0,42.2669444,-79.7108333
139,2004-10-10,21:00:00,faribault,mn,us,flash,900,35.0,44.295,-93.2686111
140,2004-10-10,21:00:00,mansfield,oh,us,light,7200,10.0,40.7583333,-82.5155556
141,2004-10-10,22:00:00,columbia,mo,us,light,60,10.0,38.9516667,-92.3338889
143,2005-10-10,07:40:00,seattle,wa,us,other,60,4.0,47.6063889,-122.3308333
144,2005-10-10,09:00:00,apache junction,az,us,other,30,15.0,33.415,-111.5488889
145,2005-10-10,09:30:00,north miami beach,fl,us,oval,1800,2.0,25.9327778,-80.1627778
146,2005-10-10,14:45:00,los angeles,ca,us,egg,10,5.0,34.0522222,-118.2427778
147,2005-10-10,20:00:00,loretto,pa,us,triangle,300,4.0,40.5030556,-78.6305556
149,2005-10-10,21:00:00,lewisburg,tn,us,unknown,240,10.0,35.4491667,-86.7888889
150,2005-10-10,21:30:00,north miami beach,fl,us,other,3600,45.0,25.9327778,-80.1627778
151,2005-10-10,22:08:00,east wenatchee,wa,us,light,1200,1.0,47.4158333,-120.2919444
152,2005-10-10,23:00:00,hendersonville,nc,us,light,600,15.0,35.3186111,-82.4611111
153,2005-10-10,23:07:00,brainerd,mn,us,disk,300,10.0,46.3580556,-94.2005556
154,2006-10-10,01:00:00,pennington,tx,us,diamond,3600,10.0,31.1911111,-95.2352778
155,2006-10-10,05:00:00,san francisco,ca,us,triangle,600,1.0,37.775,-122.4183333
156,2006-10-10,12:37:00,blairsville,ga,us,unknown,10,3.0,34.8761111,-83.9583333
157,2006-10-10,16:00:00,savannah,tn,us,light,600,5.0,35.2247222,-88.2491667
158,2006-10-10,16:00:00,waynesboro,va,us,triangle,600,15.0,38.0683333,-78.8897222
160,2006-10-10,20:00:00,bray,ok,us,other,360,20.0,34.6377778,-97.8172222
162,2006-10-10,22:40:00,waycross,ga,us,light,120,1.0,31.2133333,-82.3541667
163,2006-10-10,22:50:00,wolfforth,tx,us,disk,300,6.0,33.5058333,-102.0086111
164,2006-10-10,23:00:00,lyndhurst,oh,us,unknown,300,23.0,41.52,-81.4888889
165,2007-10-10,01:00:00,lebanon,or,us,light,14400,15.0,44.5366667,-122.9058333
166,2007-10-10,01:00:00,stockbridge,ga,us,changing,3600,5.0,33.5441667,-84.2338889
167,2007-10-10,04:00:00,denver,co,us,changing,2700,10.0,39.7391667,-104.9841667
168,2007-10-10,04:30:00,jacksonville,fl,us,sphere,30,5.0,30.3319444,-81.6558333
169,2007-10-10,06:00:00,indio,ca,us,oval,600,15.0,33.7205556,-116.2147222
170,2007-10-10,13:00:00,owego,ny,us,triangle,10800,3.0,42.1033333,-76.2625
171,2007-10-10,18:33:00,downingtown,pa,us,circle,120,4.0,40.0063889,-75.7036111
172,2007-10-10,19:00:00,austin,tx,us,flash,3,3.0,30.2669444,-97.7427778
175,2007-10-10,20:30:00,conyers,ga,us,unknown,3600,3.0,33.6675,-84.0177778
176,2007-10-10,20:55:00,vero beach,fl,us,unknown,30,15.0,27.6383333,-80.3975
177,2007-10-10,21:00:00,jensen beach,fl,us,oval,120,12.0,27.2541667,-80.23
178,2007-10-10,21:43:00,houston,tx,us,formation,35,1.0,29.7630556,-95.3630556
179,2007-10-10,22:00:00,duluth,mn,us,light,600,5.0,46.7833333,-92.1063889
180,2007-10-10,22:00:00,fleming,co,us,circle,600,10.0,40.68,-102.8388889
181,2007-10-10,22:00:00,grove city,pa,us,unknown,3600,30.0,41.1577778,-80.0888889
182,2007-10-10,22:00:00,van alstyne,tx,us,other,4,2.0,33.4213889,-96.5769444
183,2007-10-10,23:05:00,northglenn,co,us,triangle,15,10.0,39.8855556,-104.9866667
186,2008-10-10,02:00:00,north branch,mn,us,light,300,2.0,45.5113889,-92.98
187,2008-10-10,02:00:00,slingerlands,ny,us,circle,240,5.0,42.6291667,-73.865
188,2008-10-10,04:00:00,carlin,nv,us,disk,600,1.0,40.7138889,-116.1030556
189,2008-10-10,04:50:00,evansville,in,us,formation,600,40.0,37.9747222,-87.5558333
190,2008-10-10,06:00:00,albany,ny,us,oval,45,5.0,42.6525,-73.7566667
191,2008-10-10,10:22:00,fremont,ca,us,triangle,60,5.0,37.5483333,-121.9875
192,2008-10-10,18:00:00,yuma,az,us,triangle,900,24.0,32.7252778,-114.6236111
194,2008-10-10,20:00:00,la crescent,mn,us,formation,10,1.0,43.8280556,-91.3038889
196,2008-10-10,20:00:00,philadelphia,pa,us,oval,60,3.0,39.9522222,-75.1641667
199,2008-10-10,21:30:00,cincinnati,oh,us,oval,900,4.0,39.1619444,-84.4569444
200,2008-10-10,22:00:00,san diego,ca,us,disk,30,12.0,32.7152778,-117.1563889
201,2008-10-10,22:30:00,madison,wi,us,circle,20,15.0,43.0730556,-89.4011111
202,2008-10-10,23:15:00,coldwater,oh,us,sphere,60,4.0,40.4797222,-84.6283333
204,2009-10-10,12:42:00,tulsa,ok,us,unknown,6,4.0,36.1538889,-95.9925
205,2009-10-10,16:24:00,eagar,az,us,unknown,180,30.0,34.1111111,-109.2908333
206,2009-10-10,19:30:00,suffolk,va,us,unknown,900,12.0,36.7280556,-76.5838889
207,2009-10-10,20:30:00,anaheim,ca,us,light,300,24.0,33.8352778,-117.9136111
208,2009-10-10,20:45:00,wilmington,nc,us,light,600,56.0,34.2255556,-77.945
209,2009-10-10,21:00:00,leesburg,va,us,disk,300,5.0,39.1155556,-77.5638889
210,2009-10-10,23:00:00,michigan city,in,us,changing,900,4.0,41.7075,-86.895
212,2010-10-10,01:00:00,orchard park,ny,us,light,7200,3.0,42.7675,-78.7441667
213,2010-10-10,02:30:00,harrisburg,pa,us,circle,240,10.0,40.2736111,-76.8847222
214,2010-10-10,03:00:00,euclid,oh,us,circle,180,20.0,41.5930556,-81.5269444
215,2010-10-10,08:30:00,starr,sc,us,formation,600,5.0,34.3769444,-82.6958333
216,2010-10-10,12:00:00,greenwich,ct,us,light,240,5.0,41.0263889,-73.6288889
217,2010-10-10,13:00:00,north charleston,sc,us,light,180,23.0,32.8544444,-79.975
219,2010-10-10,16:30:00,springfield,va,us,cigar,15,1.0,38.7891667,-77.1875
220,2010-10-10,17:10:00,bridgeport,ct,us,light,600,2.0,41.1669444,-73.2052778
221,2010-10-10,18:30:00,clackamas,or,us,triangle,120,2.0,45.4077778,-122.5691667
222,2010-10-10,20:00:00,san angelo,tx,us,oval,60,10.0,31.4636111,-100.4366667
223,2010-10-10,20:20:00,windsor,ct,us,fireball,5,5.0,41.8525,-72.6441667
224,2010-10-10,20:45:00,sterling,il,us,cylinder,600,5.0,41.7886111,-89.6961111
225,2010-10-10,21:00:00,everett,wa,us,other,30,20.0,47.9791667,-122.2008333
226,2010-10-10,21:00:00,kykotsmovi,az,us,disk,7200,1.0,35.8752778,-110.6197222
227,2010-10-10,21:30:00,albany,ny,us,circle,10,45.0,42.6525,-73.7566667
228,2010-10-10,22:30:00,garden grove,ca,us,egg,7200,3.0,33.7738889,-117.9405556
229,2010-10-10,23:00:00,miami,fl,us,changing,1200,45.0,25.7738889,-80.1938889
230,2011-10-10,00:00:00,troy,ny,us,triangle,7200,1.0,42.7283333,-73.6922222
231,2011-10-10,01:00:00,farmington,nm,us,circle,300,4.0,36.7280556,-108.2180556
232,2011-10-10,02:00:00,prescott valley,az,us,other,300,5.0,34.61,-112.315
233,2011-10-10,10:30:00,ashville,ny,us,circle,60,30.0,42.0963889,-79.3758333
235,2011-10-10,14:30:00,north kingstown,ri,us,oval,40,23.0,41.55,-71.4666667
236,2011-10-10,15:00:00,groton,ct,us,disk,5,5.0,41.35,-72.0788889
238,2011-10-10,19:00:00,mechanicsville,va,us,light,300,5.0,37.6086111,-77.3736111
241,2011-10-10,20:00:00,middletown,ct,us,fireball,1200,1.0,41.5622222,-72.6511111
242,2011-10-10,21:00:00,lakewood,oh,us,fireball,60,2.0,41.4819444,-81.7983333
243,2011-10-10,21:00:00,york,pa,us,circle,15,10.0,39.9625,-76.7280556
244,2011-10-10,21:55:00,north platte,ne,us,circle,3,4.0,41.1238889,-100.765
245,2011-10-10,23:00:00,waynesville,oh,us,triangle,90,30.0,39.5297222,-84.0866667
246,2012-10-10,10:15:00,bridgeport,ct,us,circle,630,4.0,41.1669444,-73.2052778
248,2012-10-10,18:56:00,san diego,ca,us,sphere,240,5.0,32.7152778,-117.1563889
249,2012-10-10,19:09:00,sterling heights,mi,us,oval,120,10.0,42.5802778,-83.0302778
250,2012-10-10,19:40:00,syracuse,ny,us,light,900,10.0,43.0480556,-76.1477778
251,2012-10-10,19:45:00,syracuse,ny,us,circle,240,6.0,43.0480556,-76.1477778
252,2012-10-10,20:00:00,colorado springs,co,us,light,20,30.0,38.8338889,-104.8208333
253,2012-10-10,20:00:00,moundville,al,us,changing,240,30.0,32.9975,-87.63
254,2012-10-10,20:15:00,new york city (bronx),ny,us,disk,1800,1.0,40.7141667,-74.0063889
256,2012-10-10,20:30:00,las cruces,nm,us,fireball,120,15.0,32.3122222,-106.7777778
258,2012-10-10,20:30:00,san jose,ca,us,other,6,10.0,37.3394444,-121.8938889
259,2012-10-10,20:45:00,phoenix,az,us,sphere,300,1.0,33.4483333,-112.0733333
260,2012-10-10,20:48:00,yakima,wa,us,light,240,15.0,46.6022222,-120.5047222
261,2012-10-10,21:00:00,austin,tx,us,changing,1200,10.0,30.2669444,-97.7427778
262,2012-10-10,21:00:00,bean station,tn,us,cigar,180,30.0,36.3436111,-83.2841667
264,2012-10-10,23:01:00,suffern,ny,us,cylinder,20,3.0,41.1147222,-74.15
265,2012-10-10,23:20:00,rancho mirage,ca,us,rectangle,5,30.0,33.7397222,-116.4119444
267,2013-10-10,02:32:00,palm harbor,fl,us,chevron,5,5.0,28.0777778,-82.7638889
269,2013-10-10,17:00:00,st. louis county,mo,us,light,10800,5.0,38.6272222,-90.1977778
271,2013-10-10,19:00:00,rittman,oh,us,light,60,10.0,40.9780556,-81.7822222
273,2013-10-10,19:20:00,essex junction,vt,us,light,120,3.0,44.4905556,-73.1113889
274,2013-10-10,19:20:00,kenner,la,us,circle,600,5.0,29.9938889,-90.2416667
275,2013-10-10,20:00:00,drexel,oh,us,circle,300,2.0,39.7463889,-84.2866667
276,2013-10-10,20:00:00,hudson,nh,us,light,5,23.0,42.7647222,-71.4402778
278,2013-10-10,20:30:00,savage,mn,us,circle,60,10.0,44.7791667,-93.3361111
279,2013-10-10,20:32:00,warren,mi,us,sphere,45,3.0,42.4775,-83.0277778
280,2013-10-10,20:35:00,canton,mi,us,triangle,180,10.0,42.3086111,-83.4822222
281,2013-10-10,21:17:00,lost creek,wv,us,triangle,45,23.0,39.1611111,-80.3522222
283,1973-10-11,16:45:00,jupiter,fl,us,egg,14400,20.0,26.9338889,-80.0944444
284,1978-10-11,23:00:00,brighton,mi,us,circle,300,2.0,42.5294444,-83.7802778
286,1987-10-11,21:30:00,minnetonka,mn,us,light,30,45.0,44.9133333,-93.5030556
287,1987-10-11,23:59:00,otto,mo,us,fireball,60,1.0,38.3708333,-90.5002778
288,1989-10-11,21:00:00,kewanee,il,us,sphere,180,2.0,41.2455556,-89.9247222
290,1992-10-11,10:00:00,albuquerque,nm,us,sphere,900,2.0,35.0844444,-106.6505556
291,1994-10-11,02:00:00,jackson,nj,us,triangle,300,9.0,39.7763889,-74.8627778
292,1994-10-11,04:00:00,riverside,ca,us,chevron,4,2.0,33.9533333,-117.3952778
295,1996-10-11,22:00:00,damascus,va,us,light,60,30.0,36.6336111,-81.7838889
297,1998-10-11,02:15:00,montara,ca,us,other,3600,3.0,37.5422222,-122.515
298,1998-10-11,14:05:00,vega baja (puerto rico),pr,us,cigar,120,30.0,18.4463889,-66.3880556
299,1998-10-11,14:30:00,mount carmel,tn,us,light,10,5.0,36.5452778,-82.6611111
300,1998-10-11,20:30:00,highland,in,us,sphere,14400,10.0,39.7944444,-87.3958333
301,1998-10-11,22:40:00,bar harbor (bar island crossover),me,us,sphere,30,13.0,44.3875,-68.2044444
302,1998-10-11,22:45:00,elk grove,ca,us,fireball,4,12.0,38.4088889,-121.3705556
303,1999-10-11,00:15:00,montgomery,al,us,light,180,10.0,32.3666667,-86.3
304,1999-10-11,04:30:00,los angeles,ca,us,light,300,1.0,34.0522222,-118.2427778
306,1999-10-11,07:40:00,three rivers,mi,us,oval,600,3.0,41.9438889,-85.6325
307,1999-10-11,09:10:00,canby,or,us,light,10,1.0,45.2630556,-122.6913889
309,1999-10-11,20:15:00,portville,ny,us,oval,30,6.0,42.0386111,-78.3411111
310,1999-10-11,20:15:00,portville,ny,us,oval,30,15.0,42.0386111,-78.3411111
311,1999-10-11,20:15:00,portville,ny,us,oval,60,15.0,42.0386111,-78.3411111
312,1999-10-11,20:15:00,portville,ny,us,oval,60,10.0,42.0386111,-78.3411111
313,1999-10-11,20:35:00,kirbyville (due south of),mo,us,other,5400,30.0,36.6230556,-93.1638889
314,1999-10-11,21:00:00,winnemucca,nv,us,cigar,2,30.0,40.9730556,-117.7347222
315,1999-10-11,21:10:00,ashland,or,us,triangle,45,3.0,42.1947222,-122.7083333
316,1999-10-11,21:30:00,augusta,ks,us,light,600,23.0,37.6866667,-96.9763889
317,1999-10-11,21:30:00,montgomery,tx,us,light,3600,20.0,30.3880556,-95.6961111
318,1999-10-11,21:45:00,eureka springs,ar,us,light,900,2.0,36.4011111,-93.7377778
320,1999-10-11,22:30:00,addison (i-355 and us 20 (lake st.),il,us,disk,600,1.0,41.9316667,-87.9888889
322,2000-10-11,20:00:00,watertown,ny,us,light,30,15.0,43.9747222,-75.9111111
323,2000-10-11,22:00:00,elverta,ca,us,light,30,2.0,38.7138889,-121.4616667
325,2000-10-11,23:30:00,whittier,ca,us,light,1500,3.0,33.9791667,-118.0319444
327,2001-10-11,02:15:00,fairbanks,ak,us,other,1800,5.0,64.8377778,-147.7163889
328,2001-10-11,05:15:00,denver,co,us,light,900,20.0,39.7391667,-104.9841667
329,2001-10-11,08:15:00,columbia,ms,us,teardrop,300,20.0,31.2516667,-89.8375
330,2001-10-11,20:35:00,grass valley,ca,us,triangle,60,3.0,39.2191667,-121.06
333,2002-10-11,13:25:00,reno,nv,us,sphere,600,3.0,39.5297222,-119.8127778
334,2002-10-11,16:15:00,randolph,ma,us,cylinder,300,20.0,42.1625,-71.0416667
335,2002-10-11,20:36:00,dallas,tx,us,fireball,3,2.0,32.7833333,-96.8
337,2003-10-11,00:20:00,austin,mn,us,circle,5,45.0,43.6666667,-92.9744444
338,2003-10-11,01:29:00,new york city (manhattan),ny,us,egg,120,34.0,40.7141667,-74.0063889
339,2003-10-11,03:00:00,truckee,ca,us,sphere,3,1.0,39.3280556,-120.1822222
341,2003-10-11,11:32:00,newaygo,mi,us,circle,40,15.0,43.4197222,-85.8
343,2003-10-11,19:05:00,placerville,ca,us,light,600,3.0,38.7297222,-120.7975
344,2003-10-11,20:00:00,frederick,co,us,unknown,10,8.0,40.0991667,-104.9366667
346,2003-10-11,22:40:00,independence,mo,us,chevron,600,30.0,39.0911111,-94.4152778
347,2004-10-11,01:00:00,honolulu,hi,us,triangle,3,30.0,21.3069444,-157.8583333
348,2004-10-11,02:37:00,los angeles,ca,us,rectangle,20,8.0,34.0522222,-118.2427778
349,2004-10-11,03:40:00,dallas,or,us,light,20,4.0,44.9194444,-123.3158333
350,2004-10-11,04:15:00,pitman,nj,us,other,7200,1.0,39.7327778,-75.1319444
351,2004-10-11,05:00:00,san jose,ca,us,light,15,2.0,37.3394444,-121.8938889
353,2004-10-11,11:00:00,salinas,ca,us,formation,2700,5.0,36.6777778,-121.6544444
354,2004-10-11,14:00:00,arroyo grande,ca,us,circle,60,12.0,35.1186111,-120.5897222
355,2004-10-11,18:00:00,fresno,ca,us,rectangle,120,5.0,36.7477778,-119.7713889
357,2004-10-11,22:29:00,laredo,tx,us,fireball,1351,12.0,27.5061111,-99.5072222
358,2004-10-11,23:00:00,lake worth,fl,us,formation,7200,10.0,26.6155556,-80.0572222
359,2004-10-11,23:15:00,williamsville,ny,us,light,540,1.0,42.9638889,-78.7380556
361,2005-10-11,00:00:00,holiday,fl,us,light,180,45.0,28.1875,-82.7397222
362,2005-10-11,03:00:00,eagan,mn,us,circle,7200,4.0,44.8041667,-93.1666667
367,2005-10-11,18:45:00,peoria,az,us,light,5400,10.0,33.5805556,-112.2366667
368,2005-10-11,19:00:00,buckeye,az,us,formation,1800,24.0,33.3702778,-112.5830556
370,2005-10-11,19:30:00,tempe,az,us,triangle,3,45.0,33.4147222,-111.9086111
371,2005-10-11,19:45:00,mobile,al,us,light,1800,4.0,30.6941667,-88.0430556
372,2005-10-11,21:00:00,little ferry,nj,us,oval,300,1.0,40.8527778,-74.0425
373,2005-10-11,21:00:00,wall lake,ia,us,light,10,5.0,42.2711111,-95.0927778
375,2006-10-11,01:25:00,nashville,tn,us,disk,13,5.0,36.1658333,-86.7844444
379,2006-10-11,11:29:00,lynnwood,wa,us,unknown,120,5.0,47.8211111,-122.3138889
380,2006-10-11,19:00:00,monterey park,ca,us,fireball,120,1.0,34.0625,-118.1219444
381,2006-10-11,19:30:00,two harbors,mn,us,light,600,1.0,47.0227778,-91.6705556
382,2006-10-11,20:45:00,pensacola,fl,us,diamond,3600,35.0,30.4211111,-87.2169444
383,2006-10-11,21:00:00,milton,fl,us,light,900,10.0,30.6322222,-87.0397222
386,2006-10-11,22:00:00,enid,ok,us,light,60,1.0,36.3955556,-97.8780556
387,2006-10-11,23:00:00,pampa,tx,us,triangle,60,5.0,35.5361111,-100.9594444
388,2006-10-12,00:00:00,rome,ny,us,oval,120,3.0,43.2127778,-75.4561111
389,2007-10-11,04:40:00,melbourne,ky,us,oval,360,10.0,39.0297222,-84.3663889
390,2007-10-11,10:10:00,carlton,or,us,cylinder,900,1.0,45.2944444,-123.1752778
391,2007-10-11,16:00:00,clackamas,or,us,circle,900,23.0,45.4077778,-122.5691667
393,2007-10-11,19:50:00,seattle,wa,us,triangle,10,30.0,47.6063889,-122.3308333
394,2007-10-11,20:15:00,tega cay,sc,us,light,1800,30.0,35.0241667,-81.0280556
395,2007-10-11,20:30:00,gulf shores,al,us,disk,1800,15.0,30.2458333,-87.7008333
398,2008-10-11,04:30:00,brownsville,tx,us,disk,3,5.0,25.9013889,-97.4972222
399,2008-10-11,06:00:00,concord,ca,us,light,180,4.0,37.9780556,-122.03
400,2008-10-11,13:00:00,salisbury,nc,us,sphere,20,20.0,35.6708333,-80.4744444
402,2008-10-11,19:00:00,bridgeport,ct,us,circle,7200,2.0,41.1669444,-73.2052778
403,2008-10-11,19:00:00,dover,md,us,sphere,7200,10.0,39.5122222,-76.7697222
404,2008-10-11,19:00:00,riverside,ca,us,light,60,30.0,33.9533333,-117.3952778
405,2008-10-11,19:30:00,naples,fl,us,triangle,30,10.0,26.1416667,-81.795
406,2008-10-11,20:30:00,centerville,tx,us,light,900,20.0,31.2577778,-95.9780556
409,2008-10-11,22:30:00,los angeles,ca,us,triangle,30,3.0,34.0522222,-118.2427778
411,2009-10-11,02:45:00,deer park,ny,us,other,10800,4.0,40.7616667,-73.3297222
412,2009-10-11,04:00:00,crisfield,md,us,light,600,15.0,37.9833333,-75.8541667
414,2009-10-11,09:45:00,plymouth,mi,us,triangle,20,3.0,42.3713889,-83.4702778
415,2009-10-11,12:30:00,glendale,az,us,egg,1200,23.0,33.5386111,-112.1852778
416,2009-10-11,18:00:00,louisville,ky,us,disk,120,10.0,38.2541667,-85.7594444
418,2009-10-11,19:00:00,north smithfield,ri,us,circle,15,15.0,41.9666667,-71.55
419,2009-10-11,19:50:00,putnamville,in,us,flash,540,15.0,39.5741667,-86.8652778
421,2010-10-11,00:30:00,redondo beach,ca,us,other,1200,20.0,33.8491667,-118.3875
423,2010-10-11,04:50:00,albany,ny,us,oval,120,2.0,42.6525,-73.7566667
425,2010-10-11,12:30:00,orangevale,ca,us,changing,2700,5.0,38.6786111,-121.2247222
426,2010-10-11,19:40:00,cottage grove,mn,us,light,240,10.0,44.8277778,-92.9436111
427,2010-10-11,20:50:00,glendora,ca,us,circle,60,4.0,34.1361111,-117.8644444
428,2010-10-11,20:53:00,ramona,ca,us,triangle,5,2.0,33.0416667,-116.8672222
429,2010-10-11,21:35:00,union city,ca,us,other,15,10.0,37.5958333,-122.0180556
431,2011-10-11,03:15:00,omaha,il,us,chevron,120,2.0,37.8902778,-88.3030556
432,2011-10-11,08:40:00,henderson,nv,us,other,180,10.0,36.0397222,-114.9811111
433,2011-10-11,15:00:00,cedar city,ut,us,light,8,15.0,37.6775,-113.0611111
434,2011-10-11,19:40:00,des moines,ia,us,light,90,6.0,41.6005556,-93.6088889
435,2011-10-11,19:42:00,new bedford,ma,us,circle,1800,1.0,41.6361111,-70.9347222
437,2011-10-11,21:10:00,holden beach,nc,us,circle,30,5.0,33.9133333,-78.3041667
438,2011-10-11,23:23:00,harrodsburg,ky,us,unknown,480,15.0,37.7622222,-84.8433333
439,2012-10-11,01:00:00,worcester,ma,us,unknown,4,20.0,42.2625,-71.8027778
440,2012-10-11,02:45:00,watchung (was my perspective),nj,us,sphere,3600,2.0,40.6377778,-74.4513889
443,2012-10-11,08:00:00,angola,in,us,cigar,7200,5.0,41.6347222,-84.9994444
444,2012-10-11,19:30:00,arbutus,md,us,light,300,4.0,39.2544444,-76.7002778
445,2012-10-11,19:30:00,forty fort,pa,us,fireball,720,30.0,41.2788889,-75.8786111
446,2012-10-11,19:45:00,saratoga springs,ny,us,circle,300,20.0,43.0830556,-73.785
447,2012-10-11,20:00:00,nanticoke,pa,us,diamond,60,10.0,41.2052778,-76.0052778
448,2012-10-11,20:30:00,las cruces,nm,us,fireball,120,23.0,32.3122222,-106.7777778
449,2012-10-11,20:42:00,ravensdale,wa,us,triangle,10,40.0,47.3525,-121.9825
450,2012-10-11,21:00:00,levittown,pa,us,diamond,60,34.0,40.155,-74.8291667
451,2012-10-11,21:01:00,phoenix,az,us,sphere,30,20.0,33.4483333,-112.0733333
452,2012-10-11,22:15:00,blue island,il,us,circle,45,3.0,41.6572222,-87.68
453,2013-10-11,01:00:00,saginaw,mi,us,chevron,4,10.0,43.4194444,-83.9508333
455,2013-10-11,06:13:00,ankeny,ia,us,circle,120,3.0,41.7297222,-93.6055556
456,2013-10-11,09:05:00,palm beach gardens,fl,us,light,15,15.0,26.8230556,-80.1388889
458,2013-10-11,16:35:00,kalamazoo,mi,us,fireball,600,5.0,42.2916667,-85.5872222
459,2013-10-11,19:00:00,lawrence,ks,us,unknown,240,1.0,38.9716667,-95.235
461,2013-10-11,19:50:00,essex junction,vt,us,light,60,45.0,44.4905556,-73.1113889
462,2013-10-11,20:00:00,cincinnati,oh,us,circle,300,10.0,39.1619444,-84.4569444
463,2013-10-11,20:00:00,cincinnati,oh,us,fireball,240,15.0,39.1619444,-84.4569444
464,2013-10-11,20:00:00,naples,fl,us,light,7200,30.0,26.1416667,-81.795
466,2013-10-11,20:15:00,cincinnati,oh,us,fireball,60,3.0,39.1619444,-84.4569444
467,2013-10-11,20:15:00,union,ky,us,fireball,300,23.0,38.9458333,-84.6805556
468,2013-10-11,20:20:00,hubbardston,ma,us,fireball,60,5.0,42.4736111,-72.0066667
469,2013-10-11,20:45:00,covington,ga,us,light,300,5.0,33.5966667,-83.8602778
470,2013-10-11,21:00:00,drexel,oh,us,sphere,180,10.0,39.7463889,-84.2866667
472,2013-10-11,22:00:00,jupiter,fl,us,light,900,5.0,26.9338889,-80.0944444
473,2013-10-11,22:00:00,melbourne,fl,us,sphere,300,2.0,28.0833333,-80.6083333
474,2013-10-11,22:08:00,dresser,wi,us,sphere,60,20.0,45.3561111,-92.6333333
475,2013-10-11,22:10:00,lombard,il,us,formation,60,15.0,41.88,-88.0077778
477,2013-10-11,23:00:00,north canton,oh,us,fireball,10,5.0,40.8758333,-81.4025
478,2013-10-11,23:15:00,pinckney,mi,us,fireball,2,15.0,42.4566667,-83.9463889
479,1950-10-01,11:00:00,pikeville,ky,us,disk,600,5.0,37.4791667,-82.5188889
481,1952-10-01,12:00:00,kansas city,mo,us,disk,90,20.0,39.0997222,-94.5783333
484,1956-10-01,19:00:00,newport,nh,us,rectangle,300,15.0,43.3652778,-72.1738889
485,1957-10-01,16:00:00,nelchina (near),ak,us,unknown,180,2.0,61.9919444,-146.7686111
488,1959-10-01,19:00:00,jacksonville,il,us,unknown,60,15.0,39.7338889,-90.2288889
489,1961-10-01,03:00:00,toledo,oh,us,sphere,180,5.0,41.6638889,-83.5552778
490,1961-10-01,03:30:00,tulsa,ok,us,disk,120,3.0,36.1538889,-95.9925
491,1961-10-01,19:00:00,nashville,tn,us,disk,1800,10.0,36.1658333,-86.7844444
492,1961-10-01,22:00:00,graham,nc,us,triangle,30,5.0,36.0688889,-79.4008333
493,1965-10-01,06:40:00,biloxi,ms,us,other,900,5.0,30.3958333,-88.8852778
494,1965-10-01,14:00:00,colonial heights,va,us,sphere,120,5.0,37.2438889,-77.4105556
495,1965-10-01,21:00:00,dushore,pa,us,disk,300,10.0,41.5241667,-76.4011111
497,1966-10-01,20:00:00,buffalo,ny,us,light,240,1.0,42.8863889,-78.8786111
498,1966-10-01,22:00:00,anacortes,wa,us,light,1200,10.0,48.5127778,-122.6113889
499,1966-10-01,22:30:00,anamosa,ia,us,unknown,60,30.0,42.1083333,-91.285
500,1966-10-01,23:00:00,corvallis,or,us,disk,120,3.0,44.5647222,-123.2608333
501,1967-10-01,02:00:00,chaffee,ny,us,sphere,600,5.0,42.5680556,-78.4791667
502,1967-10-01,13:00:00,greenville,il,us,circle,30,10.0,38.8922222,-89.4130556
504,1967-10-01,20:00:00,minneapolis,mn,us,disk,10,23.0,44.98,-93.2636111
505,1968-10-01,00:00:00,boston,ma,us,cigar,1200,10.0,42.3583333,-71.0602778
506,1968-10-01,20:00:00,kennebunkport,me,us,circle,600,40.0,43.3616667,-70.4772222
507,1969-10-01,16:00:00,san francisco,ca,us,oval,600,5.0,37.775,-122.4183333
510,1970-10-01,16:00:00,new york city (brooklyn),ny,us,disk,180,3.0,40.7141667,-74.0063889
511,1970-10-01,17:30:00,bentonville,ar,us,other,14400,1.0,36.3727778,-94.2086111
513,1970-10-01,19:00:00,tampa,fl,us,other,900,1.0,27.9472222,-82.4586111
514,1970-10-01,21:00:00,new york city (brooklyn),ny,us,disk,300,5.0,40.7141667,-74.0063889
516,1971-10-01,22:00:00,pasadena,ca,us,disk,180,1.0,34.1477778,-118.1436111
517,1972-10-01,01:00:00,potwin,ks,us,unknown,10800,5.0,37.9388889,-97.0194444
518,1972-10-01,04:00:00,denton,tx,us,unknown,600,5.0,33.2147222,-97.1327778
519,1972-10-01,20:00:00,mosheim,tx,us,disk,1800,3.0,31.6261111,-97.5997222
520,1972-10-01,23:00:00,monroe,wa,us,rectangle,900,2.0,47.8555556,-121.9697222
523,1973-10-01,15:00:00,virginia beach,va,us,disk,1800,20.0,36.8527778,-75.9783333
524,1973-10-01,20:00:00,bloomington,in,us,light,1200,4.0,39.1652778,-86.5263889
527,1973-10-01,21:30:00,beatty,nv,us,disk,7200,15.0,36.9086111,-116.7583333
528,1973-10-01,21:30:00,hixson,tn,us,oval,37800,5.0,35.1405556,-85.2327778
529,1973-10-01,22:45:00,valley city,oh,us,disk,300,30.0,41.2377778,-81.9316667
531,1974-10-01,18:00:00,weirton,wv,us,sphere,240,5.0,40.4188889,-80.5897222
533,1974-10-01,20:00:00,deerwood,mn,us,unknown,2,2.0,46.4736111,-93.8986111
534,1974-10-01,21:00:00,chester,nj,us,light,600,15.0,40.7841667,-74.6972222
536,1975-10-01,22:00:00,maricopa,az,us,changing,1200,15.0,33.0580556,-112.0469444
539,1976-10-01,21:00:00,thonotosassa,fl,us,disk,900,10.0,28.0611111,-82.3025
541,1977-10-01,19:00:00,fountain valley,ca,us,other,360,23.0,33.7091667,-117.9527778
542,1977-10-01,22:00:00,ferndale,ca,us,other,60,20.0,40.5763889,-124.2627778
543,1978-10-01,00:00:00,windsor,nc,us,cone,300,15.0,35.9983333,-76.9463889
544,1978-10-01,20:00:00,lecompte,la,us,disk,300,1.0,31.0944444,-92.4002778
545,1978-10-01,23:15:00,francesville,in,us,cylinder,900,5.0,40.9852778,-86.8794444
546,1979-10-01,16:00:00,lomita,ca,us,disk,1200,10.0,33.7922222,-118.3141667
547,1979-10-01,19:00:00,columbia,md,us,rectangle,120,35.0,39.2402778,-76.8397222
548,1979-10-01,21:00:00,buffalo,ny,us,light,10,30.0,42.8863889,-78.8786111
549,1979-10-01,21:00:00,olympia,wa,us,disk,7200,2.0,47.0380556,-122.8994444
550,1979-10-01,21:00:00,pittsburgh,pa,us,disk,300,15.0,40.4405556,-79.9961111
551,1979-10-01,23:00:00,cranbury,nj,us,light,240,15.0,40.3161111,-74.5141667
552,1980-10-01,01:30:00,fremont,ca,us,other,30,5.0,37.5483333,-121.9875
553,1980-10-01,20:00:00,mountainboro,al,us,fireball,20,10.0,34.1469444,-86.1305556
554,1980-10-01,21:00:00,shirleysburg,pa,us,formation,600,3.0,40.2977778,-77.8744444
555,1980-10-01,22:00:00,jersey city,nj,us,cigar,180,30.0,40.7280556,-74.0780556
556,1981-10-01,20:00:00,hesperia,mi,us,oval,2400,2.0,43.5688889,-86.0394444
558,1982-10-01,22:10:00,swartz creek,mi,us,fireball,240,45.0,42.9572222,-83.8305556
560,1983-10-01,20:00:00,ayer,ma,us,unknown,20,23.0,42.5611111,-71.5902778
563,1984-10-01,01:00:00,waldport,or,us,light,600,3.0,44.4269444,-124.0675
564,1984-10-01,20:00:00,chatsworth,ca,us,light,45,2.0,34.2572222,-118.6002778
565,1984-10-01,21:00:00,acton,me,us,triangle,180,10.0,43.5341667,-70.9102778
566,1985-10-01,00:00:00,brandon,fl,us,triangle,900,5.0,27.9375,-82.2861111
567,1985-10-01,05:30:00,holton,mi,us,light,240,34.0,43.4133333,-86.0794444
569,1985-10-01,21:30:00,jefferson,oh,us,triangle,3600,10.0,41.7386111,-80.77
572,1986-10-01,01:00:00,klamath falls,or,us,circle,2700,35.0,42.225,-121.7805556
574,1986-10-01,22:00:00,wheeling,wv,us,light,10,5.0,40.0638889,-80.7211111
578,1987-10-01,21:00:00,alstead,nh,us,fireball,1800,20.0,43.1488889,-72.3611111
579,1987-10-01,23:00:00,louisburg,nc,us,triangle,180,2.0,36.0988889,-78.3013889
580,1989-10-01,16:00:00,mackay,id,us,disk,180,3.0,43.9147222,-113.6125
581,1989-10-01,18:00:00,winchester (near),ky,us,oval,300,2.0,37.99,-84.1797222
582,1989-10-01,20:00:00,jacksonville,il,us,circle,300,2.0,39.7338889,-90.2288889
584,1989-10-01,21:30:00,carmichael,ca,us,rectangle,10,10.0,38.6172222,-121.3272222
585,1989-10-01,21:30:00,orono,me,us,disk,20,2.0,44.8830556,-68.6725
586,1990-10-01,17:00:00,pateros,wa,us,oval,300,4.0,48.0511111,-119.9022222
589,1991-10-01,14:45:00,easley,sc,us,other,900,35.0,34.8297222,-82.6016667
593,1991-10-01,20:30:00,mckenzie,tn,us,disk,900,1.0,36.1325,-88.5186111
594,1991-10-01,21:30:00,las vegas,nv,us,cigar,5,5.0,36.175,-115.1363889
595,1991-10-01,22:00:00,lafayette,ga,us,other,900,1.0,34.7047222,-85.2819444
597,1992-10-01,17:30:00,dublin (near warner robins),ga,us,triangle,1200,57.0,32.5402778,-82.9038889
598,1992-10-01,18:00:00,springfield,mo,us,egg,90,40.0,37.2152778,-93.2980556
599,1992-10-01,19:00:00,longview,tx,us,unknown,20,1.0,32.5005556,-94.7402778
600,1993-10-01,02:00:00,tempe,az,us,triangle,900,45.0,33.4147222,-111.9086111
602,1993-10-01,20:00:00,pryor,mt,us,light,1800,7.0,45.4297222,-108.5325
603,1994-10-01,11:30:00,pawnee,ok,us,triangle,1200,6.0,36.3377778,-96.8036111
606,1994-10-01,20:00:00,chicopee,ma,us,changing,300,10.0,42.1486111,-72.6083333
607,1994-10-01,20:00:00,santa barbara,ca,us,triangle,3,10.0,34.4208333,-119.6972222
608,1994-10-01,21:00:00,warsaw,mo,us,cigar,600,20.0,38.2430556,-93.3816667
609,1994-10-01,23:00:00,las vegas,nv,us,circle,5,30.0,36.175,-115.1363889
610,1994-10-01,23:30:00,fredericksburg,pa,us,disk,300,15.0,40.4436111,-76.4286111
614,1995-10-01,17:00:00,ashland,ky,us,disk,300,5.0,38.4783333,-82.6380556
615,1995-10-01,18:30:00,williamsburg,pa,us,rectangle,600,57.0,40.4619444,-78.2
617,1995-10-01,22:00:00,tinley park,il,us,other,20,10.0,41.5733333,-87.7844444
618,1995-10-01,22:00:00,wantagh,ny,us,triangle,60,2.0,40.6836111,-73.5105556
622,1996-10-01,01:00:00,west houston (greenridge @ westiemer rd.; near galleria),tx,us,formation,30,30.0,29.7630556,-95.3630556
623,1996-10-01,05:30:00,bainbridge,oh,us,triangle,180,5.0,39.2275,-83.2705556
624,1996-10-01,08:00:00,new york city (manhattan),ny,us,oval,300,10.0,40.7141667,-74.0063889
625,1996-10-01,17:00:00,cupertino,ca,us,sphere,600,3.0,37.3230556,-122.0311111
626,1996-10-01,18:00:00,safford,az,us,sphere,30,3.0,32.8338889,-109.7069444
627,1996-10-01,22:30:00,the woodlands,tx,us,fireball,180,25.0,30.1577778,-95.4891667
628,1997-10-01,00:00:00,bemidji,mn,us,triangle,600,1.0,47.4736111,-94.88
629,1997-10-01,01:20:00,garland,tx,us,rectangle,40,17.0,32.9125,-96.6386111
630,1997-10-01,03:00:00,jefferson,ny,us,other,300,15.0,42.4811111,-74.6108333
632,1997-10-01,09:00:00,charlotte,nc,us,cigar,120,15.0,35.2269444,-80.8433333
633,1997-10-01,19:00:00,green bay,wi,us,light,1200,20.0,44.5191667,-88.0197222
634,1997-10-01,19:00:00,pelzer,sc,us,triangle,180,5.0,34.6422222,-82.4561111
635,1997-10-01,21:00:00,hyannis,ma,us,triangle,60,45.0,41.6527778,-70.2833333
636,1997-10-01,21:30:00,bourbonnais,il,us,triangle,60,25.0,41.1416667,-87.875
637,1997-10-01,21:30:00,oakland,or,us,light,60,25.0,43.4222222,-123.2972222
638,1997-10-01,21:55:00,martinsville,va,us,other,300,23.0,36.6913889,-79.8727778
639,1997-10-01,22:00:00,summerville,sc,us,triangle,1200,5.0,33.0183333,-80.1758333
640,1997-10-01,23:15:00,lakeland,fl,us,light,60,12.0,28.0391667,-81.95
641,1998-10-01,00:00:00,logan,ut,us,triangle,120,4.0,41.7355556,-111.8336111
642,1998-10-01,00:10:00,portland,or,us,light,5,5.0,45.5236111,-122.675
643,1998-10-01,01:30:00,st. paul,or,us,fireball,5,1.0,45.2113889,-122.9755556
644,1998-10-01,02:00:00,nisqually,wa,us,disk,180,58.0,47.0566667,-122.7
645,1998-10-01,04:30:00,rio rancho,nm,us,fireball,120,10.0,35.2333333,-106.6638889
646,1998-10-01,05:30:00,bayfield,co,us,light,1800,2.0,37.2255556,-107.5975
647,1998-10-01,10:00:00,san francisco,ca,us,sphere,420,1.0,37.775,-122.4183333
648,1998-10-01,13:30:00,elgin,il,us,disk,1200,1.0,42.0372222,-88.2811111
649,1998-10-01,16:00:00,del mar,ca,us,fireball,4,12.0,32.9594444,-117.2644444
651,1998-10-01,18:56:00,manchester,nh,us,oval,120,20.0,42.9955556,-71.4552778
652,1998-10-01,21:00:00,clarinda,ia,us,triangle,60,10.0,40.7419444,-95.0380556
655,1998-10-01,21:15:00,ipava,il,us,triangle,900,3.0,40.3513889,-90.3244444
656,1998-10-01,23:10:00,mosinee,wi,us,other,300,2.0,44.7930556,-89.7030556
657,1999-10-01,00:30:00,san antonio,tx,us,fireball,30,30.0,29.4238889,-98.4933333
659,1999-10-01,04:00:00,portland,or,us,light,25,30.0,45.5236111,-122.675
660,1999-10-01,04:40:00,elyria,oh,us,triangle,300,30.0,41.3683333,-82.1077778
661,1999-10-01,17:00:00,new york city (manhattan),ny,us,unknown,5,1.0,40.7141667,-74.0063889
663,1999-10-01,19:00:00,las vegas,nv,us,light,15,10.0,36.175,-115.1363889
665,1999-10-01,20:00:00,miami,fl,us,unknown,25,25.0,25.7738889,-80.1938889
666,1999-10-01,22:05:00,independence,mo,us,chevron,15,15.0,39.0911111,-94.4152778
668,2000-10-01,01:00:00,vaughn,wa,us,formation,540,15.0,47.3444444,-122.7619444
669,2000-10-01,01:30:00,sturgis,mi,us,disk,600,30.0,41.7991667,-85.4191667
672,2000-10-01,14:00:00,madera,ca,us,light,120,10.0,36.9613889,-120.0597222
673,2000-10-01,18:00:00,stockton,ca,us,sphere,180,5.0,37.9577778,-121.2897222
675,2000-10-01,20:00:00,belmont,ca,us,unknown,15,20.0,37.5202778,-122.2747222
676,2000-10-01,20:00:00,prineville,or,us,unknown,3600,2.0,44.3,-120.8333333
678,2000-10-01,20:00:00,wheaton,md,us,triangle,300,5.0,39.0397222,-77.0555556
679,2000-10-01,21:00:00,orange park,fl,us,other,10,1.0,30.1658333,-81.7066667
680,2000-10-01,21:30:00,colorado springs,co,us,light,300,20.0,38.8338889,-104.8208333
681,2000-10-01,21:30:00,maryville,mo,us,light,30,2.0,40.3461111,-94.8722222
683,2000-10-01,22:00:00,jackson,tn,us,triangle,120,10.0,35.6144444,-88.8138889
684,2000-10-01,23:15:00,jones beach,ny,us,diamond,900,1.0,42.9047222,-76.3944444
686,2001-10-01,19:00:00,kansas city,mo,us,light,900,5.0,39.0997222,-94.5783333
687,2001-10-01,20:30:00,houghton lake,mi,us,triangle,300,4.0,44.3147222,-84.7647222
688,2001-10-01,20:35:00,greene,me,us,oval,10,2.0,44.1897222,-70.1408333
690,2001-10-01,21:00:00,lafayette,ny,us,changing,180,2.0,42.8922222,-76.1055556
691,2001-10-01,22:00:00,lynden,wa,us,light,30,5.0,48.9466667,-122.4508333
692,2001-10-01,22:30:00,albany,ny,us,flash,2,10.0,42.6525,-73.7566667
694,2002-10-01,00:30:00,courtland,va,us,circle,1,15.0,36.7161111,-77.0683333
696,2002-10-01,03:00:00,oakland,ca,us,oval,420,5.0,37.8044444,-122.2697222
697,2002-10-01,05:30:00,everson,wa,us,other,5,5.0,48.9202778,-122.3413889
698,2002-10-01,05:30:00,port townsend,wa,us,fireball,10,5.0,48.1172222,-122.7591667
699,2002-10-01,05:30:00,snohomish,wa,us,sphere,3,20.0,47.9130556,-122.0969444
700,2002-10-01,05:30:00,sumner,wa,us,circle,330,30.0,47.2033333,-122.2391667
701,2002-10-01,05:35:00,pueblo,co,us,triangle,15,2.0,38.2544444,-104.6086111
702,2002-10-01,05:35:00,seattle,wa,us,unknown,1,10.0,47.6063889,-122.3308333
703,2002-10-01,05:42:00,seattle,wa,us,teardrop,3,15.0,47.6063889,-122.3308333
704,2002-10-01,05:43:00,seattle,wa,us,other,2,2.0,47.6063889,-122.3308333
705,2002-10-01,05:45:00,kent,wa,us,unknown,10,10.0,47.3811111,-122.2336111
706,2002-10-01,05:45:00,lynnwood,wa,us,fireball,5,34.0,47.8211111,-122.3138889
707,2002-10-01,05:45:00,rainier,wa,us,light,240,5.0,46.8883333,-122.6872222
708,2002-10-01,06:30:00,monroe,wi,us,light,1200,10.0,42.6011111,-89.6383333
710,2002-10-01,07:30:00,kingston,ny,us,cigar,600,3.0,41.9269444,-73.9977778
711,2002-10-01,09:00:00,germantown,md,us,cigar,180,10.0,39.1730556,-77.2719444
713,2002-10-01,14:00:00,winslow,az,us,other,1800,1.0,35.0241667,-110.6966667
714,2002-10-01,15:00:00,athol,id,us,teardrop,300,15.0,47.9480556,-116.7069444
715,2002-10-01,16:00:00,grants,nm,us,fireball,10,5.0,35.1472222,-107.8508333
716,2002-10-01,17:56:00,port hadlock,wa,us,fireball,5,3.0,48.0319444,-122.7569444
717,2002-10-01,18:00:00,orlando,fl,us,other,4,2.0,28.5380556,-81.3794444
718,2002-10-01,19:20:00,new york city (staten island),ny,us,egg,300,10.0,40.7141667,-74.0063889
719,2002-10-01,19:50:00,new york city (staten island),ny,us,light,900,20.0,40.7141667,-74.0063889
720,2002-10-01,20:30:00,castro valley,ca,us,other,1200,3.0,37.6941667,-122.0852778
721,2002-10-01,22:00:00,edmonds,wa,us,unknown,60,8.0,47.8108333,-122.3761111
722,2002-10-01,22:30:00,riverton,ut,us,unknown,120,3.0,40.5219444,-111.9383333
723,2002-10-01,23:20:00,new york city,ny,us,changing,180,30.0,40.7141667,-74.0063889
724,2003-10-01,00:00:00,saco,me,us,circle,120,1.0,43.5008333,-70.4433333
725,2003-10-01,00:20:00,redmond,wa,us,light,2,5.0,47.6741667,-122.1202778
727,2003-10-01,05:40:00,long beach (sports arena),ca,us,other,600,10.0,33.7669444,-118.1883333
728,2003-10-01,16:00:00,hartland,mi,us,unknown,120,5.0,42.6566667,-83.7530556
730,2003-10-01,20:05:00,san diego,ca,us,unknown,240,30.0,32.7152778,-117.1563889
731,2003-10-01,21:00:00,bellevue,wa,us,light,10,5.0,47.6105556,-122.1994444
732,2003-10-01,21:00:00,rye,co,us,sphere,2,45.0,37.9236111,-104.9297222
733,2003-10-01,21:30:00,oologah,ok,us,other,600,10.0,36.4469444,-95.7080556
734,2003-10-01,22:00:00,granville,ma,us,circle,5,25.0,42.0666667,-72.8619444
737,2003-10-01,23:00:00,circleville,oh,us,light,600,5.0,39.6005556,-82.9461111
738,2004-10-01,16:00:00,eureka,ca,us,unknown,720,25.0,40.8022222,-124.1625
739,2004-10-01,17:00:00,las vegas,nv,us,cylinder,2,15.0,36.175,-115.1363889
741,2004-10-01,20:27:00,richmond,va,us,triangle,300,5.0,37.5536111,-77.4605556
742,2004-10-01,20:50:00,tucson,az,us,unknown,1,10.0,32.2216667,-110.9258333
745,2004-10-01,23:00:00,sidney,mi,us,sphere,14400,23.0,43.25,-85.1330556
748,2005-10-01,00:00:00,harrisburg,mo,us,light,2400,5.0,39.1269,-92.4399
749,2005-10-01,00:00:00,oak forest,il,us,circle,3600,9.0,41.6027778,-87.7438889
750,2005-10-01,00:30:00,oak forest,il,us,light,3600,10.0,41.6027778,-87.7438889
751,2005-10-01,00:40:00,orland park,il,us,diamond,2700,45.0,41.6302778,-87.8538889
752,2005-10-01,00:53:00,tinley park,il,us,circle,1200,30.0,41.5733333,-87.7844444
754,2005-10-01,00:57:00,orland park,il,us,light,420,15.0,41.6302778,-87.8538889
755,2005-10-01,00:57:00,orland park,il,us,light,6,15.0,41.6302778,-87.8538889
756,2005-10-01,01:00:00,midlothian,il,us,light,1500,5.0,41.6252778,-87.7175
757,2005-10-01,01:00:00,oak forest,il,us,changing,600,1.0,41.6027778,-87.7438889
758,2005-10-01,01:00:00,oak forest,il,us,light,600,45.0,41.6027778,-87.7438889
760,2005-10-01,01:00:00,tinley park,il,us,circle,600,5.0,41.5733333,-87.7844444
762,2005-10-01,01:00:00,tinley park,il,us,formation,1200,24.0,41.5733333,-87.7844444
763,2005-10-01,01:00:00,tinley park,il,us,triangle,1800,30.0,41.5733333,-87.7844444
764,2005-10-01,01:00:00,tinley park,il,us,triangle,900,2.0,41.5733333,-87.7844444
765,2005-10-01,01:03:00,oak forest,il,us,light,1200,1.0,41.6027778,-87.7438889
766,2005-10-01,01:08:00,evergreen park,il,us,light,480,34.0,41.7205556,-87.7016667
767,2005-10-01,01:10:00,alsip,il,us,light,480,5.0,41.6688889,-87.7386111
768,2005-10-01,01:10:00,crestwood,il,us,light,300,30.0,41.6611111,-87.7525
769,2005-10-01,01:10:00,cuyahoga falls,oh,us,other,7,5.0,41.1338889,-81.4847222
771,2005-10-01,01:10:00,manhattan,il,us,triangle,10,20.0,41.4225,-87.9858333
773,2005-10-01,01:10:00,oak forest,il,us,light,1800,15.0,41.6027778,-87.7438889
774,2005-10-01,01:10:00,oak forest,il,us,unknown,60,1.0,41.6027778,-87.7438889
775,2005-10-01,03:00:00,posen,il,us,light,1200,20.0,41.6316667,-87.6813889
776,2005-10-01,06:30:00,greenup,ky,us,circle,30,10.0,38.5730556,-82.8302778
777,2005-10-01,08:22:00,homestead,fl,us,light,300,2.0,25.4683333,-80.4777778
778,2005-10-01,09:30:00,albuquerque,nm,us,disk,600,1.0,35.0844444,-106.6505556
779,2005-10-01,12:00:00,lake worth,fl,us,sphere,180,3.0,26.6155556,-80.0572222
781,2005-10-01,17:00:00,los angeles,ca,us,formation,1500,5.0,34.0522222,-118.2427778
782,2005-10-01,18:00:00,west palm beach,fl,us,teardrop,60,2.0,26.7052778,-80.0366667
784,2005-10-01,19:58:00,rogers,mn,us,triangle,1020,15.0,45.1888889,-93.5527778
785,2005-10-01,20:05:00,liberty hill,tx,us,light,900,20.0,30.6647222,-97.9222222
786,2005-10-01,20:05:00,san jose,ca,us,chevron,600,29.0,37.3394444,-121.8938889
788,2005-10-01,20:30:00,napa,ca,us,unknown,1200,12.0,38.2972222,-122.2844444
789,2005-10-01,21:30:00,laurelville,oh,us,unknown,300,10.0,39.4733333,-82.7394444
790,2005-10-01,21:30:00,oklahoma city,ok,us,light,2700,20.0,35.4675,-97.5161111
792,2005-10-01,22:00:00,central lake,mi,us,unknown,1500,5.0,45.07,-85.2644444
794,2005-10-01,23:00:00,tinley park,il,us,light,120,11.0,41.5733333,-87.7844444
795,2006-10-01,01:00:00,jones,mi,us,oval,5,5.0,41.9025,-85.7994444
796,2006-10-01,01:00:00,rio rancho,nm,us,oval,3,30.0,35.2333333,-106.6638889
798,2006-10-01,01:30:00,irving,tx,us,circle,2,1.0,32.8138889,-96.9486111
799,2006-10-01,02:20:00,montebello,ca,us,other,300,2.0,34.0094444,-118.1044444
801,2006-10-01,12:30:00,new york city (bronx),ny,us,rectangle,120,1.0,40.7141667,-74.0063889
802,2006-10-01,14:00:00,mt. pleasant,sc,us,circle,240,10.0,32.7938889,-79.8627778
803,2006-10-01,14:00:00,plainfield,il,us,oval,300,10.0,41.6269444,-88.2038889
804,2006-10-01,15:05:00,thompson,mo,us,cigar,3600,5.0,39.1886111,-91.9827778
806,2006-10-01,17:00:00,algona,ia,us,unknown,3600,30.0,43.07,-94.2327778
807,2006-10-01,17:00:00,onion creek,wa,us,chevron,60,1.0,48.7838889,-117.8105556
809,2006-10-01,19:20:00,monkton,md,us,oval,480,30.0,39.5786111,-76.6158333
810,2006-10-01,19:45:00,las vegas,nv,us,fireball,600,6.0,36.175,-115.1363889
812,2006-10-01,20:18:00,fall city,wa,us,fireball,2,18.0,47.5675,-121.8875
813,2006-10-01,20:19:00,orchards,wa,us,fireball,1,15.0,45.6666667,-122.5597222
814,2006-10-01,20:24:00,pullman,wa,us,circle,1,1.0,46.7313889,-117.1786111
815,2006-10-01,20:34:00,seattle,wa,us,teardrop,12,5.0,47.6063889,-122.3308333
818,2006-10-01,21:00:00,seattle,wa,us,light,20,2.0,47.6063889,-122.3308333
819,2006-10-01,21:15:00,roseville,ca,us,sphere,600,10.0,38.7522222,-121.2869444
821,2006-10-01,22:00:00,santa fe,nm,us,fireball,20,10.0,35.6869444,-105.9372222
825,2006-10-01,23:00:00,glorieta,nm,us,changing,2,3.0,35.5830556,-105.7694444
826,2006-10-01,23:00:00,silver city,nm,us,light,180,10.0,32.77,-108.2797222
827,2006-10-01,23:00:00,wide ruins,az,us,cylinder,120,5.0,35.4194444,-109.4958333
828,2006-10-01,23:15:00,boulder,co,us,oval,30,5.0,40.015,-105.27
829,2006-10-01,23:15:00,canon city,co,us,light,240,30.0,38.4,-105.2166667
831,2006-10-01,23:15:00,denver,co,us,circle,30,25.0,39.7391667,-104.9841667
833,2006-10-01,23:15:00,fairplay,co,us,unknown,30,8.0,39.2247222,-106.0013889
835,2006-10-01,23:15:00,mccoy,co,us,light,75,5.0,39.9161111,-106.725
836,2006-10-01,23:15:00,pueblo west,co,us,sphere,10,25.0,38.35,-104.7222222
837,2006-10-01,23:15:00,santa fe,nm,us,light,45,4.0,35.6869444,-105.9372222
838,2006-10-01,23:15:00,taos,nm,us,formation,150,45.0,36.4072222,-105.5725
839,2006-10-01,23:17:00,cascade,co,us,circle,15,10.0,38.8966667,-104.9716667
840,2006-10-01,23:20:00,boulder (foothills of),co,us,sphere,6,45.0,40.015,-105.27
841,2006-10-01,23:20:00,cripple creek,co,us,fireball,15,45.0,38.7466667,-105.1777778
844,2006-10-01,23:20:00,raton,nm,us,formation,60,1.0,36.9033333,-104.4386111
845,2006-10-01,23:20:00,sedalia,co,us,formation,30,1.0,39.4369444,-104.9591667
846,2006-10-01,23:20:00,silverthorne,co,us,light,10,2.0,39.6375,-106.0613889
847,2006-10-01,23:27:00,monument,co,us,other,10,30.0,39.0916667,-104.8722222
848,2006-10-01,23:30:00,pueblo west,co,us,light,300,20.0,38.35,-104.7222222
849,2006-10-01,23:32:00,farmington,nm,us,light,14,10.0,36.7280556,-108.2180556
850,2006-10-01,23:40:00,san antonio,nm,us,circle,20,10.0,33.9177778,-106.8652778
851,2007-10-01,00:00:00,escondido,ca,us,diamond,120,5.0,33.1191667,-117.0855556
852,2007-10-01,00:00:00,los angeles,ca,us,flash,900,3.0,34.0522222,-118.2427778
853,2007-10-01,00:02:00,dayton,oh,us,oval,5,4.0,39.7588889,-84.1916667
857,2007-10-01,09:50:00,charlotte,nc,us,light,1200,45.0,35.2269444,-80.8433333
858,2007-10-01,13:00:00,litchfield,il,us,oval,2,30.0,39.1752778,-89.6541667
859,2007-10-01,17:10:00,granville,oh,us,sphere,120,2.0,40.0680556,-82.5197222
860,2007-10-01,19:00:00,beulaville,nc,us,triangle,5,10.0,34.9236111,-77.7741667
861,2007-10-01,20:00:00,ewa beach,hi,us,light,600,10.0,21.3155556,-158.0072222
863,2007-10-01,20:00:00,tryon,nc,us,light,10,30.0,35.2080556,-82.2386111
865,2007-10-01,21:00:00,deer park,ny,us,other,240,35.0,40.7616667,-73.3297222
866,2007-10-01,21:00:00,sanford,fl,us,triangle,120,10.0,28.8002778,-81.2733333
867,2007-10-01,22:30:00,dublin,ca,us,flash,2,10.0,37.7022222,-121.9347222
868,2008-10-01,00:00:00,conway,ar,us,triangle,600,55.0,35.0886111,-92.4419444
870,2008-10-01,01:00:00,bryan,oh,us,cylinder,120,3.0,41.4747222,-84.5525
871,2008-10-01,01:00:00,merrick,ny,us,disk,5,35.0,40.6627778,-73.5519444
872,2008-10-01,05:00:00,huntington,wv,us,cylinder,600,50.0,38.4191667,-82.4452778
873,2008-10-01,06:20:00,lynchburg,va,us,light,30,5.0,37.4136111,-79.1425
875,2008-10-01,09:45:00,dallas,tx,us,oval,300,10.0,32.7833333,-96.8
877,2008-10-01,19:00:00,warwick,ri,us,circle,600,7.0,41.7,-71.4166667
878,2008-10-01,19:12:00,bonham,tx,us,egg,300,5.0,33.5772222,-96.1780556
880,2008-10-01,20:00:00,cabazon,ca,us,light,1200,15.0,33.9175,-116.7863889
881,2008-10-01,20:00:00,glenrock,wy,us,unknown,1200,45.0,42.8613889,-105.8716667
882,2008-10-01,20:00:00,marysville,wa,us,circle,1800,5.0,48.0519444,-122.1758333
883,2008-10-01,20:00:00,texas city,tx,us,other,2,15.0,29.3836111,-94.9025
884,2008-10-01,20:00:00,wilson,nc,us,circle,600,5.0,35.7211111,-77.9158333
885,2008-10-01,20:03:00,idaho falls,id,us,light,15,15.0,43.4666667,-112.0333333
886,2008-10-01,20:45:00,leavenworth,wa,us,light,120,3.0,47.5963889,-120.6602778
887,2008-10-01,20:45:00,renton,wa,us,light,600,20.0,47.4830556,-122.2158333
888,2008-10-01,21:00:00,wellington,al,us,light,120,10.0,33.8225,-85.8927778
890,2008-10-01,21:30:00,lacey,wa,us,unknown,4,5.0,47.0344444,-122.8219444
891,2008-10-01,22:00:00,garrett,in,us,triangle,4,5.0,41.3494444,-85.1355556
892,2008-10-01,22:30:00,arlington,tx,us,sphere,600,12.0,32.7355556,-97.1077778
893,2008-10-01,22:45:00,sunnyvale,ca,us,other,20,45.0,37.3688889,-122.0352778
894,2008-10-01,22:55:00,kingsport,tn,us,triangle,3,5.0,36.5483333,-82.5619444
896,2009-10-01,04:30:00,hogansville,ga,us,disk,10,2.0,33.1730556,-84.915
897,2009-10-01,08:00:00,pawtucket,ri,us,cylinder,600,5.0,41.8786111,-71.3830556
898,2009-10-01,09:00:00,canton,mi,us,triangle,3600,30.0,42.3086111,-83.4822222
899,2009-10-01,15:38:00,whitefield,ok,us,light,2,30.0,35.2525,-95.2372222
900,2009-10-01,18:00:00,memphis,tn,us,oval,300,23.0,35.1494444,-90.0488889
902,2009-10-01,20:00:00,providence,ri,us,disk,300,15.0,41.8238889,-71.4133333
903,2009-10-01,20:30:00,beaver,oh,us,light,10800,30.0,39.0305556,-82.8244444
904,2009-10-01,22:30:00,belmont,ms,us,triangle,120,20.0,34.5097222,-88.2091667
905,2009-10-01,23:00:00,belleview,fl,us,circle,600,7.0,29.055,-82.0625
906,2009-10-01,23:00:00,fairfield,ct,us,light,20,1.0,41.1411111,-73.2641667
907,2010-10-01,00:00:00,delray beach,fl,us,other,180,15.0,26.4611111,-80.0730556
908,2010-10-01,06:25:00,aripeka,fl,us,light,8,30.0,28.4319444,-82.6644444
910,2010-10-01,08:30:00,middleton,wi,us,other,180,12.0,43.0972222,-89.5041667
911,2010-10-01,09:30:00,spotsylvania,va,us,circle,1800,3.0,38.2008333,-77.5894444
913,2010-10-01,12:16:00,waxahachie,tx,us,disk,1,20.0,32.3863889,-96.8480556
914,2010-10-01,16:30:00,dallas,tx,us,other,15,2.0,32.7833333,-96.8
915,2010-10-01,18:30:00,strasburg,va,us,cigar,300,40.0,38.9886111,-78.3588889
916,2010-10-01,19:45:00,fayetteville,nc,us,light,300,1.0,35.0525,-78.8786111
917,2010-10-01,20:45:00,brunswick,oh,us,triangle,600,10.0,41.2380556,-81.8419444
918,2010-10-01,21:00:00,arlington,wa,us,oval,300,5.0,48.1988889,-122.1238889
926,2011-10-01,06:00:00,san benito,tx,us,triangle,10,15.0,26.1322222,-97.6308333
927,2011-10-01,09:30:00,brownwood,tx,us,unknown,1500,5.0,31.7091667,-98.9908333
928,2011-10-01,13:00:00,clinton,ms,us,circle,300,10.0,32.3413889,-90.3216667
929,2011-10-01,16:00:00,goshen,ca,us,oval,60,10.0,36.3511111,-119.4191667
931,2011-10-01,20:00:00,linn (outside of),mo,us,unknown,5,3.0,38.4858333,-91.8502778
932,2011-10-01,20:00:00,wilmington,nc,us,triangle,300,40.0,34.2255556,-77.945
933,2011-10-01,20:15:00,cincinnati,oh,us,sphere,900,30.0,39.1619444,-84.4569444
934,2011-10-01,20:30:00,palatine,il,us,light,90,15.0,42.1102778,-88.0341667
935,2011-10-01,21:00:00,hamburg,ca,us,light,300,5.0,41.7830556,-123.0591667
936,2011-10-01,21:20:00,carlsbad,ca,us,fireball,10,17.0,33.1580556,-117.3497222
937,2011-10-01,21:43:00,kansas city,mo,us,fireball,45,2.0,39.0997222,-94.5783333
938,2011-10-01,21:43:00,kansas city,mo,us,fireball,60,5.0,39.0997222,-94.5783333
939,2011-10-01,21:50:00,tenino,wa,us,light,180,1.0,46.8569444,-122.8516667
940,2011-10-01,22:00:00,mccomb,ms,us,rectangle,10,2.0,31.2436111,-90.4530556
942,2011-10-01,23:11:00,conyers,ga,us,light,3600,15.0,33.6675,-84.0177778
945,2011-10-01,23:57:00,homestead,fl,us,formation,35,2.0,25.4683333,-80.4777778
946,2012-10-01,01:00:00,richmond,tx,us,unknown,300,10.0,29.5819444,-95.7605556
947,2012-10-01,01:50:00,colorado springs,co,us,light,9,30.0,38.8338889,-104.8208333
948,2012-10-01,02:00:00,surprise,az,us,light,9,15.0,33.6305556,-112.3325
949,2012-10-01,06:30:00,sarasota,fl,us,formation,10,5.0,27.3361111,-82.5308333
953,2012-10-01,17:30:00,port hueneme,ca,us,light,1800,10.0,34.1477778,-119.1941667
954,2012-10-01,19:30:00,hinsdale,il,us,fireball,180,12.0,41.8008333,-87.9369444
955,2012-10-01,20:00:00,eugene,or,us,light,180,1.0,44.0522222,-123.0855556
956,2012-10-01,20:00:00,fontana,ca,us,fireball,900,1.0,34.0922222,-117.4341667
957,2012-10-01,20:00:00,racine,wi,us,other,900,10.0,42.7261111,-87.7827778
958,2012-10-01,20:00:00,sunfield,mi,us,unknown,300,3.0,42.7622222,-84.9925
959,2012-10-01,20:10:00,capitola,ca,us,light,60,30.0,36.9752778,-121.9522222
961,2012-10-01,23:00:00,huntington,in,us,fireball,180,15.0,40.8830556,-85.4975
962,2012-10-02,00:00:00,novi,mi,us,triangle,300,3.0,42.4805556,-83.4755556
963,2013-10-01,03:00:00,colorado springs,co,us,triangle,5400,15.0,38.8338889,-104.8208333
964,2013-10-01,06:35:00,bel air,md,us,flash,4,2.0,39.5358333,-76.3486111
965,2013-10-01,07:40:00,bakersfield,ca,us,circle,30,20.0,35.3733333,-119.0177778
969,2013-10-01,09:43:00,muncie,in,us,triangle,7200,5.0,40.1933333,-85.3863889
971,2013-10-01,12:30:00,pittsburgh,pa,us,unknown,60,1.0,40.4405556,-79.9961111
973,2013-10-01,18:30:00,boulder,co,us,light,240,5.0,40.015,-105.27
974,2013-10-01,19:15:00,thibodaux,la,us,unknown,300,10.0,29.7955556,-90.8227778
975,2013-10-01,19:20:00,webster,ny,us,sphere,1800,2.0,43.2122222,-77.4302778
976,2013-10-01,19:25:00,southwest ranches,fl,us,light,300,1.0,26.0583333,-80.3375
977,2013-10-01,20:00:00,tampa,fl,us,light,3600,40.0,27.9472222,-82.4586111
978,2013-10-01,21:30:00,cumming,ga,us,fireball,1200,30.0,34.2072222,-84.1402778
979,2013-10-01,21:40:00,sneedville,tn,us,circle,90,10.0,36.5297222,-83.2175
980,2013-10-01,22:10:00,white lake,mi,us,unknown,900,3.0,42.6916667,-83.5541667
982,2013-10-01,22:45:00,middle island (long island),ny,us,fireball,1200,12.0,40.8841667,-72.9377778
984,2013-10-01,23:30:00,arlington,wi,us,unknown,600,10.0,43.3380556,-89.3802778
985,1965-10-12,12:00:00,pittsburgh,pa,us,circle,120,5.0,40.4405556,-79.9961111
986,1965-10-12,13:00:00,pittsburgh,pa,us,disk,60,5.0,40.4405556,-79.9961111
989,1973-10-12,19:00:00,birmingham (just south of),al,us,disk,900,1.0,33.5205556,-86.8025
992,1978-10-12,21:00:00,dyersburg,tn,us,triangle,7200,2.0,36.0344444,-89.3855556
993,1978-10-12,23:00:00,alpine,az,us,circle,7200,10.0,33.8480556,-109.1425
994,1979-10-12,00:45:00,barnegat,nj,us,rectangle,900,1.0,39.7530556,-74.2233333
995,1982-10-12,05:30:00,pearlington,ms,us,light,20,30.0,30.2463889,-89.6111111
996,1982-10-12,05:30:00,pearlington,ms,us,light,29,10.0,30.2463889,-89.6111111
997,1985-10-12,23:45:00,swansboro,nc,us,disk,300,2.0,34.6875,-77.1194444
999,1994-10-12,11:55:00,schenectady,ny,us,other,120,10.0,42.8141667,-73.94
1000,1994-10-12,15:00:00,monticello,ky,us,chevron,120,35.0,36.8297222,-84.8491667
1001,1994-10-12,21:00:00,okeechobee,fl,us,disk,120,58.0,27.2436111,-80.83
1002,1995-10-12,20:30:00,pueblo,co,us,triangle,10,5.0,38.2544444,-104.6086111
1004,1997-10-12,18:30:00,huntington beach,ca,us,sphere,20,45.0,33.6602778,-117.9983333
1006,1997-10-12,21:51:00,kenner (34th st.),la,us,disk,1260,10.0,29.9938889,-90.2416667
1007,1997-10-12,22:30:00,chicago,il,us,light,300,12.0,41.85,-87.65
1008,1997-10-12,23:00:00,franklin,nh,us,other,15,30.0,43.4441667,-71.6477778
1010,1998-10-12,04:00:00,lincoln,ne,us,egg,11,10.0,40.8,-96.6666667
1011,1998-10-12,07:00:00,murray,ut,us,light,300,4.0,40.6669444,-111.8872222
1012,1998-10-12,19:00:00,asheville,nc,us,fireball,1800,35.0,35.6008333,-82.5541667
1013,1998-10-12,19:00:00,asheville,nc,us,light,2400,10.0,35.6008333,-82.5541667
1014,1999-10-12,01:30:00,missoula,mt,us,triangle,60,3.0,46.8722222,-113.9930556
1015,1999-10-12,05:11:00,albany,or,us,fireball,120,1.0,44.6366667,-123.1047222
1016,1999-10-12,09:00:00,miami,ok,us,oval,120,15.0,36.8744444,-94.8772222
1018,1999-10-12,12:07:00,breezewood,pa,us,fireball,3600,17.0,39.9991667,-78.2388889
1019,1999-10-12,17:15:00,scottsdale,az,us,cigar,600,3.0,33.5091667,-111.8983333
1020,1999-10-12,20:00:00,palominas (near ft. huachuca),az,us,triangle,600,10.0,31.3797222,-110.1177778
1022,1999-10-12,21:35:00,port townsend,wa,us,triangle,300,30.0,48.1172222,-122.7591667
1023,1999-10-12,22:00:00,phoenix,az,us,fireball,600,2.0,33.4483333,-112.0733333
1024,1999-10-12,22:15:00,tulsa,ok,us,other,30,15.0,36.1538889,-95.9925
1025,1999-10-12,23:00:00,little falls (north of),mn,us,formation,3600,45.0,45.9763889,-94.3622222
1027,2000-10-12,08:00:00,breckenridge,tx,us,other,300,23.0,32.7555556,-98.9019444
1029,2000-10-12,15:00:00,mountain city,tn,us,disk,30,10.0,36.4744444,-81.805
1030,2000-10-12,17:40:00,new haven,wv,us,disk,6,10.0,38.9863889,-81.9736111
1031,2000-10-12,18:00:00,belmont,vt,us,cigar,600,3.0,43.4155556,-72.8227778
1033,2000-10-12,18:59:00,gilbert,az,us,oval,1080,30.0,33.3527778,-111.7883333
1034,2000-10-12,19:00:00,gilbert,az,us,unknown,900,9.0,33.3527778,-111.7883333
1035,2000-10-12,19:30:00,tulsa,ok,us,fireball,60,10.0,36.1538889,-95.9925
1037,2000-10-12,21:30:00,buckeye,az,us,light,300,1.0,33.3702778,-112.5830556
1038,2001-10-12,01:30:00,miami (kendall),fl,us,circle,1200,1.0,25.7738889,-80.1938889
1039,2001-10-12,05:30:00,miami,fl,us,disk,1200,10.0,25.7738889,-80.1938889
1040,2001-10-12,15:40:00,denver,co,us,disk,120,10.0,39.7391667,-104.9841667
1041,2001-10-12,18:30:00,phoenix,az,us,formation,120,5.0,33.4483333,-112.0733333
1044,2001-10-12,23:08:00,eagle river,ak,us,other,10,10.0,61.3213889,-149.5677778
1045,2002-10-12,11:00:00,san leandro,ca,us,disk,600,34.0,37.725,-122.155
1046,2002-10-12,11:00:00,winfield,tx,us,circle,600,12.0,33.1672222,-95.1116667
1047,2002-10-12,14:40:00,san francisco,ca,us,unknown,180,2.0,37.775,-122.4183333
1048,2002-10-12,15:49:00,tinton falls,nj,us,light,900,2.0,40.3041667,-74.1008333
1050,2002-10-12,19:10:00,renton,wa,us,disk,3,2.0,47.4830556,-122.2158333
1052,2002-10-12,19:30:00,rose lake,id,us,light,600,2.0,47.5388889,-116.4708333
1054,2002-10-12,20:00:00,paris,tx,us,triangle,300,15.0,33.6608333,-95.5552778
1055,2002-10-12,20:10:00,boca raton,fl,us,light,300,15.0,26.3583333,-80.0833333
1056,2002-10-12,20:45:00,paris,tx,us,triangle,300,35.0,33.6608333,-95.5552778
1059,2003-10-12,02:00:00,albany,ny,us,unknown,30,5.0,42.6525,-73.7566667
1061,2003-10-12,13:08:00,auburn,pa,us,fireball,600,30.0,40.5983333,-76.0936111
1062,2003-10-12,18:25:00,rosamond,ca,us,other,480,30.0,34.8641667,-118.1625
1064,2003-10-12,18:35:00,reevesville,sc,us,other,900,25.0,33.2055556,-80.6480556
1066,2003-10-12,22:20:00,dallas,tx,us,sphere,300,3.0,32.7833333,-96.8
1068,2004-10-12,00:00:00,fort morgan,co,us,sphere,1500,5.0,40.2502778,-103.7994444
1069,2004-10-12,00:00:00,tacoma,wa,us,formation,4,15.0,47.2530556,-122.4430556
1070,2004-10-12,00:06:00,ripon,ca,us,other,5,12.0,37.7416667,-121.1233333
1073,2004-10-12,12:55:00,utica,ny,us,light,45,5.0,43.1008333,-75.2330556
1074,2004-10-12,14:00:00,hayward,ca,us,sphere,2700,2.0,37.6688889,-122.0797222
1077,2004-10-12,20:01:00,miami,fl,us,light,60,5.0,25.7738889,-80.1938889
1078,2004-10-12,20:27:00,north port,fl,us,light,75,50.0,27.0438889,-82.2361111
1079,2004-10-12,21:10:00,belfair,wa,us,fireball,60,15.0,47.4508333,-122.8261111
1080,2004-10-12,22:30:00,rocklin,ca,us,triangle,3600,5.0,38.7908333,-121.2347222
1081,2005-10-12,00:00:00,bakersfield,ca,us,fireball,7200,10.0,35.3733333,-119.0177778
1082,2005-10-12,01:15:00,bossier city,la,us,oval,30,3.0,32.5158333,-93.7319444
1084,2005-10-12,04:00:00,farmland,in,us,light,600,10.0,40.1877778,-85.1275
1086,2005-10-12,17:00:00,noblesville,in,us,light,10,3.0,40.0455556,-86.0086111
1088,2005-10-12,20:02:00,phoenix,az,us,light,300,2.0,33.4483333,-112.0733333
1090,2005-10-12,20:32:00,peoria,az,us,triangle,240,10.0,33.5805556,-112.2366667
1091,2005-10-12,21:00:00,georgetown,tx,us,changing,7200,5.0,30.6325,-97.6769444
1095,2006-10-12,17:50:00,altamonte springs,fl,us,sphere,30,10.0,28.6608333,-81.3658333
1097,2006-10-12,20:00:00,pontiac,mi,us,light,120,1.0,42.6388889,-83.2911111
1098,2006-10-12,22:30:00,boulder,co,us,triangle,10,1.0,40.015,-105.27
1099,2007-10-12,00:20:00,ogden,ut,us,triangle,10,8.0,41.2230556,-111.9730556
1100,2007-10-12,01:45:00,sedalia,mo,us,formation,15,12.0,38.7044444,-93.2280556
1101,2007-10-12,05:30:00,new york city,ny,us,light,1800,1.0,40.7141667,-74.0063889
1102,2007-10-12,08:15:00,arcadia,fl,us,formation,65,5.0,27.2155556,-81.8586111
1104,2007-10-12,19:20:00,west los angeles,ca,us,unknown,600,34.0,34.0522222,-118.2427778
1106,2007-10-12,21:30:00,appleton,wi,us,circle,300,10.0,44.2619444,-88.4152778
1108,2007-10-12,22:00:00,irvine,ca,us,circle,600,25.0,33.6694444,-117.8222222
1109,2007-10-12,22:00:00,york,pa,us,oval,3300,15.0,39.9625,-76.7280556
1110,2007-10-12,23:00:00,rogers,ar,us,unknown,172800,2.0,36.3319444,-94.1183333
1111,2007-10-12,23:30:00,dingmans ferry,pa,us,triangle,3,10.0,41.22,-74.8716667
1112,2008-10-12,05:20:00,islip (central),ny,us,light,35,34.0,40.7297222,-73.2108333
1113,2008-10-12,08:00:00,russellton,pa,us,cigar,50,15.0,40.6113889,-79.8372222
1114,2008-10-12,09:00:00,reading,pa,us,diamond,300,5.0,40.3355556,-75.9272222
1115,2008-10-12,09:00:00,rio rancho,nm,us,disk,90,5.0,35.2333333,-106.6638889
1116,2008-10-12,12:00:00,larksville,pa,us,other,600,1.0,41.245,-75.9311111
1117,2008-10-12,15:10:00,nicholasville,ky,us,circle,900,15.0,37.8805556,-84.5730556
1119,2008-10-12,20:00:00,mckinney,tx,us,light,300,30.0,33.1975,-96.615
1120,2008-10-12,21:00:00,manchester,tn,us,changing,120,15.0,35.4816667,-86.0886111
1122,2008-10-12,23:00:00,gainesville,va,us,light,300,58.0,38.7955556,-77.6141667
1123,2008-10-12,23:00:00,las vegas,nv,us,changing,900,4.0,36.175,-115.1363889
1124,2008-10-12,23:00:00,wayne,mi,us,circle,45,2.0,42.2813889,-83.3863889
1126,2009-10-12,11:00:00,mcdonough,ga,us,formation,900,34.0,33.4472222,-84.1469444
1127,2009-10-12,20:00:00,yakima,wa,us,light,300,10.0,46.6022222,-120.5047222
1128,2009-10-12,20:30:00,san juan,tx,us,unknown,900,15.0,26.1888889,-98.155
1131,2010-10-12,00:56:00,cross roads,tx,us,triangle,180,10.0,31.0747222,-96.1425
1132,2010-10-12,06:00:00,tomball,tx,us,cigar,20,2.0,30.0969444,-95.6158333
1134,2010-10-12,10:00:00,milpitas,ca,us,other,300,15.0,37.4283333,-121.9055556
1135,2010-10-12,10:00:00,milpitas,ca,us,other,300,25.0,37.4283333,-121.9055556
1136,2010-10-12,12:30:00,waco,tx,us,oval,300,40.0,31.5491667,-97.1463889
1137,2010-10-12,16:00:00,hillsdale,mi,us,circle,120,9.0,41.92,-84.6305556
1138,2010-10-12,19:00:00,arlington,va,us,sphere,45,15.0,38.8902778,-77.0844444
1139,2010-10-12,19:10:00,dallas,tx,us,cigar,300,5.0,32.7833333,-96.8
1140,2010-10-12,19:13:00,daphne,al,us,chevron,45,6.0,30.6033333,-87.9036111
1141,2010-10-12,20:15:00,bridgeton,mo,us,rectangle,120,5.0,38.7669444,-90.4113889
1142,2010-10-12,20:30:00,boston,ma,us,disk,300,5.0,42.3583333,-71.0602778
1143,2010-10-12,21:00:00,lufkin,tx,us,chevron,30,1.0,31.3380556,-94.7288889
1144,2010-10-12,22:15:00,pinellas park,fl,us,circle,1800,1.0,27.8425,-82.6997222
1146,2010-10-12,22:30:00,waterloo,ia,us,light,180,15.0,42.4927778,-92.3427778
1148,2011-10-12,17:11:00,waco,tx,us,changing,900,2.0,31.5491667,-97.1463889
1149,2011-10-12,19:40:00,whitesburg,tn,us,circle,30,5.0,36.2716667,-83.14
1150,2011-10-12,20:00:00,ocean isle beach,nc,us,light,1200,5.0,33.8941667,-78.4269444
1151,2011-10-12,20:00:00,st. george,ut,us,disk,7,1.0,37.1041667,-113.5833333
1152,2011-10-12,20:07:00,charleston,sc,us,unknown,30,3.0,32.7763889,-79.9311111
1153,2011-10-12,21:00:00,san antonio,tx,us,triangle,900,8.0,29.4238889,-98.4933333
1154,2011-10-12,21:00:00,zortman,mt,us,light,1800,8.0,47.9177778,-108.5255556
1155,2012-10-12,00:00:00,titusville,fl,us,fireball,30,10.0,28.6119444,-80.8077778
1156,2012-10-12,04:10:00,chicago,il,us,unknown,7200,30.0,41.85,-87.65
1157,2012-10-12,06:30:00,pittsburgh,pa,us,rectangle,3,10.0,40.4405556,-79.9961111
1158,2012-10-12,08:25:00,bessemer,pa,us,circle,300,23.0,40.9747222,-80.4938889
1159,2012-10-12,14:30:00,big rock,tn,us,sphere,1200,1.0,36.5805556,-87.76
1160,2012-10-12,15:00:00,clarksville,tn,us,circle,120,45.0,36.5297222,-87.3594444
1163,2012-10-12,18:00:00,salem,or,us,oval,600,15.0,44.9430556,-123.0338889
1164,2012-10-12,18:55:00,phoenix,az,us,other,300,45.0,33.4483333,-112.0733333
1165,2012-10-12,19:00:00,buckeye,az,us,light,3600,10.0,33.3702778,-112.5830556
1167,2012-10-12,19:00:00,lake worth,fl,us,chevron,60,3.0,26.6155556,-80.0572222
1170,2012-10-12,19:10:00,hadlyme,ct,us,light,300,20.0,41.4202778,-72.4069444
1171,2012-10-12,19:30:00,tucson,az,us,chevron,6,3.0,32.2216667,-110.9258333
1172,2012-10-12,20:00:00,cumberland,md,us,light,10,34.0,39.6527778,-78.7627778
1174,2012-10-12,20:00:00,waukesha,wi,us,circle,900,7.0,43.0116667,-88.2313889
1176,2012-10-12,20:30:00,oklahoma city,ok,us,sphere,300,5.0,35.4675,-97.5161111
1177,2012-10-12,20:30:00,wellington,fl,us,fireball,600,1.0,26.6583333,-80.2416667
1178,2012-10-12,20:45:00,grayling,mi,us,light,600,15.0,44.6613889,-84.7147222
1179,2012-10-12,21:05:00,anchorage,ak,us,fireball,10,2.0,61.2180556,-149.9002778
1181,2012-10-12,21:45:00,cabin creek,wv,us,unknown,40,2.0,38.1958333,-81.4777778
1182,2012-10-12,22:00:00,marlton,nj,us,circle,1800,2.0,39.8911111,-74.9222222
1185,2012-10-12,23:15:00,wolcott,ct,us,circle,300,30.0,41.6022222,-72.9872222
1186,2013-10-12,03:08:00,austin,tx,us,unknown,17,30.0,30.2669444,-97.7427778
1187,2013-10-12,04:30:00,cambridge,ny,us,light,7200,1.0,43.0280556,-73.3816667
1188,2013-10-12,07:17:00,strongsville,oh,us,triangle,300,3.0,41.3144444,-81.8358333
1189,2013-10-12,07:45:00,festus,mo,us,fireball,60,10.0,38.2205556,-90.3958333
1190,2013-10-12,13:00:00,owego,ny,us,disk,120,2.0,42.1033333,-76.2625
1191,2013-10-12,14:35:00,kodiak,ak,us,other,300,45.0,57.79,-152.4072222
1192,2013-10-12,15:00:00,st. louis,mo,us,formation,900,5.0,38.6272222,-90.1977778
1194,2013-10-12,19:45:00,columbus,oh,us,changing,180,20.0,39.9611111,-82.9988889
1195,2013-10-12,20:00:00,finleyville,pa,us,other,120,3.0,40.2522222,-80.0030556
1197,2013-10-12,20:00:00,north judson,in,us,light,30,11.0,41.215,-86.7758333
1198,2013-10-12,20:00:00,suffolk,va,us,triangle,900,15.0,36.7280556,-76.5838889
1199,2013-10-12,20:20:00,morganton,nc,us,light,300,2.0,35.7452778,-81.685
1201,2013-10-12,20:40:00,hamilton,oh,us,formation,1200,2.0,39.3994444,-84.5613889
1202,2013-10-12,20:55:00,austin,tx,us,triangle,60,15.0,30.2669444,-97.7427778
1203,2013-10-12,21:00:00,franklin,oh,us,light,600,3.0,39.5588889,-84.3041667
1204,2013-10-12,21:00:00,hamilton,oh,us,fireball,120,30.0,39.3994444,-84.5613889
1206,2013-10-12,21:00:00,springboro,oh,us,unknown,60,15.0,39.5522222,-84.2333333
1208,2013-10-12,21:15:00,miamisburg,oh,us,fireball,600,3.0,39.6427778,-84.2866667
1209,2013-10-12,21:15:00,peoria,il,us,formation,180,5.0,40.6936111,-89.5888889
1210,2013-10-12,21:45:00,springboro,oh,us,unknown,30,5.0,39.5522222,-84.2333333
1211,2013-10-12,22:00:00,aspen (~2 hrs. w of; driving),co,us,formation,30,5.0,39.1911111,-106.8169444
1212,2013-10-12,22:00:00,grand junction (east of; on i-70),co,us,light,15,10.0,39.0638889,-108.55
1215,2013-10-12,22:05:00,hilliard,oh,us,diamond,180,10.0,40.0333333,-83.1583333
1216,2013-10-12,22:26:00,hiawassee,ga,us,circle,900,1.0,34.9491667,-83.7575
1219,2013-10-12,23:00:00,anderson,sc,us,circle,20,3.0,34.5033333,-82.6502778
1220,2013-10-12,23:28:00,orangevale,ca,us,fireball,600,2.0,38.6786111,-121.2247222
1221,2013-10-13,00:00:00,cincinnati,oh,us,fireball,300,35.0,39.1619444,-84.4569444
1222,2013-10-13,00:00:00,orangevale (sacramento),ca,us,sphere,60,20.0,38.6786111,-121.2247222
1223,1966-10-13,07:00:00,mission,tx,us,disk,5,30.0,26.2155556,-98.325
1224,1969-10-13,21:15:00,millington,tn,us,formation,259200,1.0,35.3413889,-89.8972222
1225,1969-10-13,22:00:00,memphis,tn,us,formation,3600,1.0,35.1494444,-90.0488889
1226,1971-10-13,21:00:00,bristol,ct,us,disk,600,10.0,41.6716667,-72.9497222
1227,1973-10-13,18:00:00,weldon,nc,us,oval,300,35.0,36.4269444,-77.5958333
1230,1994-10-13,19:30:00,farmington,mo,us,cylinder,120,1.0,37.7808333,-90.4216667
1232,1995-10-13,06:30:00,new york city,ny,us,light,60,5.0,40.7141667,-74.0063889
1235,1996-10-13,03:19:00,reno,nv,us,triangle,2400,12.0,39.5297222,-119.8127778
1236,1996-10-13,06:00:00,gainesville,fl,us,circle,2400,16.0,29.6513889,-82.325
1237,1996-10-13,15:00:00,astoria (outside of),or,us,circle,30,10.0,46.1880556,-123.83
1239,1996-10-13,20:00:00,encino,ca,us,triangle,3,10.0,34.1591667,-118.5002778
1241,1997-10-13,20:15:00,reno,nv,us,other,3600,15.0,39.5297222,-119.8127778
1242,1997-10-13,22:15:00,hollister,ca,us,light,120,2.0,36.8525,-121.4005556
1246,1999-10-13,09:45:00,santa fe,nm,us,disk,25,15.0,35.6869444,-105.9372222
1247,1999-10-13,17:20:00,florence,ky,us,triangle,600,1.0,38.9988889,-84.6266667
1248,1999-10-13,18:00:00,pittsburgh,pa,us,other,300,2.0,40.4405556,-79.9961111
1249,1999-10-13,19:45:00,boscobel,wi,us,light,300,2.0,43.1344444,-90.7052778
1250,1999-10-13,22:00:00,lansing,mi,us,circle,600,10.0,42.7325,-84.5555556
1251,2000-10-13,01:00:00,forest hills,ny,us,circle,60,7.0,40.7161111,-73.8505556
1254,2000-10-13,06:45:00,tulsa,ok,us,fireball,60,5.0,36.1538889,-95.9925
1255,2000-10-13,08:00:00,newton,ks,us,fireball,90,5.0,38.0466667,-97.3447222
1257,2000-10-13,18:45:00,knoxville,tn,us,cylinder,120,15.0,35.9605556,-83.9208333
1258,2000-10-13,18:45:00,louisville,ky,us,triangle,600,5.0,38.2541667,-85.7594444
1260,2000-10-13,19:14:00,clyde,tx,us,cylinder,60,20.0,32.4058333,-99.4933333
1261,2000-10-13,19:20:00,jenks,ok,us,fireball,30,10.0,36.0227778,-95.9680556
1262,2000-10-13,19:25:00,orangeville,pa,us,unknown,600,5.0,41.0780556,-76.4147222
1263,2000-10-13,19:30:00,amarillo,tx,us,light,120,5.0,35.2219444,-101.8308333
1264,2000-10-13,19:30:00,baird,tx,us,fireball,60,4.0,32.3938889,-99.3938889
1265,2000-10-13,19:53:00,elk city,ok,us,fireball,600,2.0,35.4119444,-99.4038889
1266,2000-10-13,20:00:00,eugene (west of),or,us,light,300,30.0,44.0522222,-123.0855556
1267,2000-10-13,20:00:00,miami,fl,us,chevron,8,5.0,25.7738889,-80.1938889
1268,2000-10-13,21:30:00,orwigsburg,pa,us,fireball,5,35.0,40.6547222,-76.1011111
1269,2000-10-13,22:10:00,portland,or,us,light,3,6.0,45.5236111,-122.675
1270,2001-10-13,00:45:00,poughkeepsie,ny,us,triangle,2700,10.0,41.7002778,-73.9213889
1273,2001-10-13,19:00:00,avondale,az,us,triangle,120,5.0,33.4355556,-112.3488889
1274,2001-10-13,19:55:00,minneapolis,mn,us,light,10,15.0,44.98,-93.2636111
1275,2001-10-13,22:00:00,stockton,ca,us,triangle,120,15.0,37.9577778,-121.2897222
1276,2002-10-13,01:00:00,heltonville,in,us,light,1800,5.0,38.9277778,-86.3755556
1277,2002-10-13,04:47:00,mary esther,fl,us,triangle,1200,10.0,30.4097222,-86.6630556
1278,2002-10-13,18:20:00,chicago,il,us,fireball,10,1.0,41.85,-87.65
1279,2002-10-13,19:00:00,alameda,ca,us,cylinder,240,5.0,37.7652778,-122.2405556
1280,2002-10-13,19:00:00,smithfield,nc,us,disk,2100,10.0,35.5083333,-78.3397222
1281,2002-10-13,19:10:00,eastman,ga,us,light,600,10.0,32.1975,-83.1777778
1284,2002-10-13,23:00:00,ship bottom,nj,us,triangle,60,3.0,39.6427778,-74.1808333
1286,2003-10-13,01:00:00,evansville,in,us,light,600,2.0,37.9747222,-87.5558333
1287,2003-10-13,06:00:00,craig,co,us,triangle,1020,5.0,40.5152778,-107.5458333
1289,2003-10-13,11:50:00,pocatello,id,us,oval,10,5.0,42.8713889,-112.4447222
1292,2003-10-13,18:30:00,wilton,ca,us,disk,1800,3.0,38.4119444,-121.2711111
1293,2003-10-13,19:12:00,phoenix,az,us,sphere,10,20.0,33.4483333,-112.0733333
1295,2003-10-13,20:00:00,binghamton,ny,us,sphere,30,45.0,42.0986111,-75.9183333
1297,2003-10-13,21:00:00,provo,ut,us,light,900,20.0,40.2338889,-111.6577778
1298,2003-10-13,21:20:00,denver,co,us,chevron,45,30.0,39.7391667,-104.9841667
1299,2003-10-13,21:30:00,trenton,oh,us,other,180,2.0,39.4808333,-84.4577778
1300,2003-10-13,21:30:00,warsaw,in,us,other,180,58.0,41.2380556,-85.8530556
1302,2003-10-13,23:00:00,waterbury,ct,us,disk,10,20.0,41.5580556,-73.0519444
1303,2003-10-13,23:15:00,houston,tx,us,light,600,1.0,29.7630556,-95.3630556
1304,2003-10-13,23:15:00,zanesville,oh,us,rectangle,180,20.0,39.9402778,-82.0133333
1305,2004-10-13,00:00:00,summerland key,fl,us,cigar,20,25.0,24.6652778,-81.4425
1306,2004-10-13,01:25:00,galveston,tx,us,light,1800,30.0,29.3011111,-94.7975
1307,2004-10-13,06:20:00,new haven,ct,us,unknown,540,30.0,41.3080556,-72.9286111
1309,2004-10-13,17:14:00,titusville,pa,us,oval,600,20.0,41.6269444,-79.6738889
1310,2004-10-13,19:00:00,oceanside,or,us,disk,120,2.0,45.4611111,-123.9666667
1311,2004-10-13,20:00:00,mena,ar,us,light,60,2.0,34.5861111,-94.2394444
1312,2004-10-13,21:40:00,twin falls,id,us,light,60,1.0,42.5630556,-114.46
1314,2004-10-13,23:00:00,parkersburg,wv,us,circle,10,4.0,39.2666667,-81.5616667
1316,2004-10-13,23:50:00,new rochelle,ny,us,rectangle,300,15.0,40.9113889,-73.7827778
1317,2004-10-14,00:00:00,white hall,ar,us,triangle,300,15.0,34.2738889,-92.0908333
1318,2005-10-13,02:20:00,siloam springs,ar,us,circle,180,23.0,36.1880556,-94.5402778
1319,2005-10-13,04:30:00,jupiter,fl,us,light,10,34.0,26.9338889,-80.0944444
1320,2005-10-13,05:05:00,boise,id,us,chevron,4,17.0,43.6136111,-116.2025
1321,2005-10-13,15:12:00,twin falls,id,us,disk,120,25.0,42.5630556,-114.46
1322,2005-10-13,17:32:00,terlton,ok,us,cylinder,120,10.0,36.1880556,-96.49
1323,2005-10-13,17:32:00,terlton,ok,us,cylinder,120,5.0,36.1880556,-96.49
1324,2005-10-13,18:40:00,mesa,az,us,light,90,5.0,33.4222222,-111.8219444
1326,2005-10-13,20:00:00,miami,fl,us,other,120,1.0,25.7738889,-80.1938889
1327,2005-10-13,20:00:00,millbrook,al,us,changing,7200,15.0,32.4797222,-86.3619444
1328,2005-10-13,20:05:00,livermore,ca,us,light,120,3.0,37.6819444,-121.7669444
1329,2005-10-13,21:00:00,northfield,mn,us,chevron,1800,1.0,44.4583333,-93.1613889
1330,2005-10-13,21:30:00,hayward,ca,us,rectangle,15,15.0,37.6688889,-122.0797222
1331,2005-10-13,23:30:00,atlanta,tx,us,other,15,30.0,33.1136111,-94.1641667
1333,2006-10-13,02:00:00,tamarac,fl,us,cylinder,35,5.0,26.2125,-80.25
1335,2006-10-13,05:00:00,brewer,me,us,light,240,10.0,44.7966667,-68.7619444
1336,2006-10-13,10:30:00,vandenberg village,ca,us,disk,60,23.0,34.7083333,-120.4666667
1337,2006-10-13,13:00:00,trout lake,wa,us,unknown,300,10.0,45.9975,-121.5269444
1338,2006-10-13,17:30:00,la mesa,ca,us,light,600,35.0,32.7677778,-117.0222222
1339,2006-10-13,19:30:00,philadelphia,pa,us,oval,1800,15.0,39.9522222,-75.1641667
1340,2006-10-13,20:30:00,rawlins,wy,us,triangle,30,20.0,41.7911111,-107.2380556
1341,2006-10-13,20:50:00,beaumont,tx,us,triangle,20,1.0,30.0858333,-94.1016667
1343,2006-10-13,22:00:00,de soto,ks,us,triangle,10,1.0,38.9791667,-94.9683333
1344,2007-10-13,01:30:00,vancleave,ms,us,unknown,10800,10.0,30.5402778,-88.6875
1348,2007-10-13,07:45:00,katy,tx,us,triangle,5,4.0,29.7855556,-95.8241667
1349,2007-10-13,08:35:00,henderson,nv,us,changing,90,15.0,36.0397222,-114.9811111
1350,2007-10-13,11:15:00,fairfax,va,us,sphere,600,5.0,38.8461111,-77.3066667
1351,2007-10-13,15:30:00,ashland,or,us,light,600,3.0,42.1947222,-122.7083333
1352,2007-10-13,17:30:00,los angeles,ca,us,cigar,15,15.0,34.0522222,-118.2427778
1354,2007-10-13,20:28:00,mooresville,nc,us,light,300,2.0,35.5847222,-80.8102778
1355,2007-10-13,22:00:00,kennewick,wa,us,cylinder,300,5.0,46.2113889,-119.1361111
1358,2007-10-13,23:00:00,seattle,wa,us,unknown,7200,45.0,47.6063889,-122.3308333
1359,2007-10-14,00:00:00,hudson,wi,us,sphere,180,3.0,44.9747222,-92.7566667
1360,2008-10-13,05:30:00,santa rosa,ca,us,light,10,30.0,38.4405556,-122.7133333
1361,2008-10-13,06:00:00,newburyport,ma,us,light,300,23.0,42.8125,-70.8777778
1362,2008-10-13,09:20:00,clovis,ca,us,other,3000,5.0,36.8252778,-119.7019444
1363,2008-10-13,10:15:00,san francisco,ca,us,circle,900,2.0,37.775,-122.4183333
1364,2008-10-13,14:00:00,yakima,wa,us,unknown,120,5.0,46.6022222,-120.5047222
1367,2009-10-13,06:30:00,jackson,nj,us,light,10,40.0,39.7763889,-74.8627778
1368,2009-10-13,07:03:00,bend,or,us,light,180,3.0,44.0583333,-121.3141667
1371,2009-10-13,20:30:00,stockton,ca,us,light,10,2.0,37.9577778,-121.2897222
1372,2009-10-13,22:00:00,minersville,pa,us,sphere,300,10.0,40.6905556,-76.2625
1373,2009-10-13,23:10:00,crookston,mn,us,triangle,180,10.0,47.7741667,-96.6077778
1374,2010-10-13,01:00:00,pueblo,co,us,flash,5,2.0,38.2544444,-104.6086111
1375,2010-10-13,03:00:00,webster,tx,us,cross,120,45.0,29.5375,-95.1180556
1376,2010-10-13,04:45:00,rochester,ny,us,light,3600,6.0,43.1547222,-77.6158333
1377,2010-10-13,14:30:00,las vegas,nv,us,circle,600,1.0,36.175,-115.1363889
1378,2010-10-13,16:00:00,naperville,il,us,cylinder,900,20.0,41.7858333,-88.1472222
1379,2010-10-13,17:00:00,richmond,ca,us,sphere,600,20.0,37.9358333,-122.3466667
1380,2010-10-13,17:30:00,flora,il,us,cross,90,3.0,38.6688889,-88.4855556
1381,2010-10-13,18:15:00,grandview,mo,us,chevron,10,5.0,38.8858333,-94.5327778
1382,2010-10-13,18:30:00,grandview,mo,us,chevron,10,15.0,38.8858333,-94.5327778
1383,2010-10-13,20:00:00,cincinnati,oh,us,unknown,300,3.0,39.1619444,-84.4569444
1384,2010-10-13,20:00:00,lincoln,ca,us,flash,3600,2.0,38.8916667,-121.2919444
1387,2010-10-13,20:30:00,martinez,ca,us,other,8,12.0,38.0194444,-122.1330556
1389,2010-10-13,20:40:00,grandview,mo,us,chevron,60,1.0,38.8858333,-94.5327778
1390,2010-10-13,20:45:00,charleston,sc,us,triangle,300,1.0,32.7763889,-79.9311111
1391,2010-10-13,21:00:00,charlotte,nc,us,light,600,30.0,35.2269444,-80.8433333
1392,2010-10-13,21:00:00,san francisco,ca,us,light,240,5.0,37.775,-122.4183333
1393,2010-10-13,21:00:00,san francisco,ca,us,sphere,1200,20.0,37.775,-122.4183333
1394,2010-10-13,22:00:00,allen,tx,us,unknown,10,10.0,33.1030556,-96.6702778
1395,2010-10-13,22:30:00,rio linda,ca,us,cylinder,2,6.0,38.6911111,-121.4475
1397,2010-10-13,22:45:00,las vegas,nv,us,changing,15,30.0,36.175,-115.1363889
1398,2011-10-13,01:36:00,norman,ok,us,oval,120,15.0,35.2225,-97.4391667
1399,2011-10-13,03:30:00,newark,nj,us,light,10,5.0,40.7355556,-74.1727778
1400,2011-10-13,15:00:00,wilmington,oh,us,unknown,4,5.0,39.4452778,-83.8286111
1402,2011-10-13,19:20:00,merriam,ks,us,triangle,15,45.0,39.0236111,-94.6933333
1405,2011-10-13,20:00:00,boiling springs,sc,us,formation,300,45.0,35.0463889,-81.9819444
1406,2011-10-13,20:21:00,north myrtle beach,sc,us,unknown,60,3.0,33.8158333,-78.6802778
1407,2011-10-13,20:30:00,avon,nc,us,fireball,900,20.0,35.3519444,-75.5108333
1408,2011-10-13,20:38:00,gurley,al,us,diamond,480,2.0,34.7016667,-86.3758333
1409,2011-10-13,21:00:00,surfside beach,sc,us,light,1800,12.0,33.6058333,-78.9733333
1411,2011-10-13,22:26:00,myrtle beach,sc,us,circle,15,10.0,33.6888889,-78.8869444
1412,2011-10-13,23:38:00,homestead,fl,us,sphere,1800,5.0,25.4683333,-80.4777778
1413,2012-10-13,01:00:00,bel air,md,us,light,8,2.0,39.5358333,-76.3486111
1414,2012-10-13,01:38:00,cary,nc,us,fireball,4,3.0,35.7913889,-78.7813889
1416,2012-10-13,02:00:00,salt lake city,ut,us,other,120,1.0,40.7608333,-111.8902778
1417,2012-10-13,05:30:00,ligonier,pa,us,other,1200,15.0,40.2430556,-79.2377778
1418,2012-10-13,06:30:00,cedar bluff,al,us,circle,240,1.0,34.22,-85.6077778
1419,2012-10-13,10:00:00,columbia,md,us,triangle,600,15.0,39.2402778,-76.8397222
1420,2012-10-13,14:38:00,denver,co,us,other,900,8.0,39.7391667,-104.9841667
1421,2012-10-13,15:00:00,stockton springs,me,us,sphere,3,10.0,44.4894444,-68.8575
1423,2012-10-13,19:00:00,taos,nm,us,rectangle,10,4.0,36.4072222,-105.5725
1424,2012-10-13,19:20:00,pekin,il,us,triangle,120,1.0,40.5675,-89.6405556
1426,2012-10-13,20:22:00,milford,ct,us,oval,900,30.0,41.2222222,-73.0569444
1427,2012-10-13,20:26:00,holyoke,ma,us,oval,1500,10.0,42.2041667,-72.6166667
1430,2012-10-13,20:30:00,milford,ct,us,circle,540,15.0,41.2222222,-73.0569444
1431,2012-10-13,20:30:00,milford,ct,us,light,900,15.0,41.2222222,-73.0569444
1432,2012-10-13,20:40:00,evergreen park,il,us,oval,300,25.0,41.7205556,-87.7016667
1433,2012-10-13,21:00:00,cromwell,ct,us,cylinder,360,10.0,41.595,-72.6458333
1435,2012-10-13,21:15:00,york springs,pa,us,oval,300,10.0,40.0088889,-77.1158333
1436,2012-10-13,21:21:00,baton rouge,la,us,triangle,60,1.0,30.4505556,-91.1544444
1437,2012-10-13,21:45:00,mount laurel,nj,us,fireball,60,6.0,39.9338889,-74.8913889
1438,2012-10-13,22:00:00,isle of palms,sc,us,circle,180,5.0,32.7866667,-79.795
1439,2012-10-13,22:05:00,oregon city,or,us,unknown,900,5.0,45.3575,-122.6055556
1443,2012-10-13,23:00:00,mountain home,ar,us,light,900,20.0,36.3352778,-92.385
1444,2012-10-13,23:30:00,new bern,nc,us,circle,120,15.0,35.1083333,-77.0444444
1445,2012-10-14,00:00:00,kingston,pa,us,light,300,1.0,41.2616667,-75.8972222
1446,2013-10-13,00:00:00,bloomington,mn,us,sphere,120,20.0,44.8408333,-93.2980556
1447,2013-10-13,02:59:00,salt lake city,ut,us,unknown,5,12.0,40.7608333,-111.8902778
1449,2013-10-13,05:01:00,newark,tx,us,circle,10800,2.0,33.0011111,-97.4841667
1453,2013-10-13,18:57:00,council bluffs,ia,us,light,480,45.0,41.2619444,-95.8608333
1454,2013-10-13,19:00:00,irondequoit,ny,us,fireball,600,10.0,43.2133333,-77.58
1456,2013-10-13,19:30:00,oswego,il,us,circle,600,1.0,41.6827778,-88.3513889
1457,2013-10-13,19:40:00,mechanicsburg,pa,us,fireball,180,5.0,40.2141667,-77.0088889
1458,2013-10-13,19:45:00,pasadena,md,us,circle,60,15.0,39.1072222,-76.5713889
1459,2013-10-13,19:45:00,spring hill,fl,us,diamond,300,15.0,28.5555556,-82.4505556
1460,2013-10-13,19:47:00,spokane,wa,us,flash,900,10.0,47.6588889,-117.425
1463,2013-10-13,20:00:00,sanford,fl,us,unknown,900,25.0,28.8002778,-81.2733333
1464,2013-10-13,20:30:00,bushnell,fl,us,sphere,2700,10.0,28.6647222,-82.1130556
1465,2013-10-13,20:30:00,raymond,oh,us,unknown,600,12.0,40.3347222,-83.4658333
1466,2013-10-13,20:40:00,indianapolis,in,us,circle,1200,25.0,39.7683333,-86.1580556
1467,2013-10-13,20:45:00,gobles,mi,us,unknown,180,30.0,42.3608333,-85.8794444
1468,2013-10-13,20:59:00,silverdale,wa,us,light,2640,20.0,47.6447222,-122.6936111
1469,2013-10-13,21:15:00,livonia,mi,us,triangle,55,4.0,42.3683333,-83.3527778
1472,2013-10-13,22:00:00,walls,ms,us,light,240,5.0,34.9577778,-90.1516667
1473,2013-10-13,22:50:00,fishers,in,us,changing,60,5.0,39.9555556,-86.0138889
1474,2013-10-13,22:55:00,new york city (brooklyn),ny,us,sphere,420,2.0,40.7141667,-74.0063889
1475,2013-10-13,23:00:00,warren,mi,us,sphere,3,30.0,42.4775,-83.0277778
1479,1974-10-14,16:30:00,fulton,mo,us,diamond,60,45.0,38.8466667,-91.9477778
1481,1978-10-14,07:00:00,atlanta,ga,us,disk,900,2.0,33.7488889,-84.3880556
1482,1986-10-14,20:30:00,san jose,ca,us,light,120,15.0,37.3394444,-121.8938889
1484,1994-10-14,04:00:00,goodlettsville,tn,us,changing,120,5.0,36.3230556,-86.7133333
1485,1994-10-14,19:30:00,citra,fl,us,sphere,120,2.0,29.4116667,-82.11
1486,1994-10-14,20:30:00,cornersville,tn,us,circle,1200,5.0,35.3613889,-86.8397222
1488,1995-10-14,20:05:00,belmont,mi,us,triangle,1800,15.0,43.0755556,-85.6091667
1495,1997-10-14,16:00:00,syracuse (north),ny,us,unknown,30,57.0,43.0480556,-76.1477778
1498,1998-10-14,19:55:00,otis,or,us,other,3,5.0,45.0244444,-123.9452778
1499,1998-10-14,19:55:00,overton,nv,us,fireball,10,5.0,36.5433333,-114.4461111
1500,1998-10-14,22:00:00,tucson,az,us,oval,120,4.0,32.2216667,-110.9258333
1501,1999-10-14,08:30:00,prescott,az,us,light,2700,5.0,34.54,-112.4677778
1502,1999-10-14,14:00:00,yonkers,ny,us,light,300,15.0,40.9311111,-73.8991667
1505,1999-10-14,20:20:00,mead  (near spokane),wa,us,light,3,30.0,47.7675,-117.3538889
1507,1999-10-14,22:10:00,nashville,tn,us,light,660,15.0,36.1658333,-86.7844444
1508,1999-10-14,22:50:00,raymond,nh,us,triangle,900,1.0,43.0361111,-71.1838889
1509,2000-10-14,01:16:00,salinas,ca,us,unknown,120,1.0,36.6777778,-121.6544444
1510,2000-10-14,02:30:00,escondido,ca,us,unknown,2700,2.0,33.1191667,-117.0855556
1511,2000-10-14,14:18:00,breezewood,pa,us,cigar,120,30.0,39.9991667,-78.2388889
1512,2000-10-14,16:05:00,mechanicsville,va,us,circle,15,30.0,37.6086111,-77.3736111
1513,2000-10-14,18:15:00,sarasota,fl,us,unknown,180,3.0,27.3361111,-82.5308333
1514,2000-10-14,18:30:00,gonzales,la,us,rectangle,30,30.0,30.2383333,-90.92
1516,2000-10-14,22:18:00,denver,co,us,unknown,360,30.0,39.7391667,-104.9841667
1517,2001-10-14,03:30:00,chicago (downtown&#44 on l. michigan),il,us,other,900,3.0,41.85,-87.65
1518,2001-10-14,06:00:00,adkins,tx,us,diamond,120,5.0,29.3927778,-98.2369444
1519,2001-10-14,17:00:00,franklin,ma,us,other,180,8.0,42.0833333,-71.3972222
1521,2001-10-14,20:45:00,lake elmo,mn,us,chevron,300,23.0,44.9958333,-92.8791667
1522,2001-10-14,21:03:00,des moines,ia,us,light,5,3.0,41.6005556,-93.6088889
1523,2001-10-14,22:00:00,savanna,il,us,light,300,10.0,42.0944444,-90.1566667
1524,2002-10-14,01:22:00,savage,mn,us,triangle,10,4.0,44.7791667,-93.3361111
1525,2002-10-14,02:00:00,joseph,ut,us,triangle,2,5.0,38.6263889,-112.2163889
1526,2002-10-14,07:10:00,ely,nv,us,light,1500,10.0,39.2475,-114.8877778
1528,2002-10-14,16:15:00,littleton,co,us,disk,600,2.0,39.6133333,-105.0161111
1530,2002-10-14,18:45:00,dallesport,wa,us,light,60,1.0,45.6175,-121.1783333
1533,2002-10-14,19:00:00,manteca,ca,us,light,300,5.0,37.7975,-121.215
1534,2002-10-14,19:00:00,palos verdes estates,ca,us,unknown,180,3.0,33.8005556,-118.3891667
1535,2002-10-14,19:00:00,temecula,ca,us,circle,2,30.0,33.4936111,-117.1475
1537,2002-10-14,19:00:00,walnut creek,ca,us,light,300,2.0,37.9063889,-122.0638889
1539,2002-10-14,19:02:00,creswell,or,us,fireball,30,10.0,43.9180556,-123.0233333
1540,2002-10-14,19:02:00,porterville,ca,us,fireball,60,5.0,36.0652778,-119.0158333
1541,2002-10-14,19:03:00,redwood valley,ca,us,fireball,60,5.0,39.2655556,-123.2033333
1542,2002-10-14,19:05:00,grass valley,ca,us,fireball,10,2.0,39.2191667,-121.06
1543,2002-10-14,19:05:00,ivins,ut,us,fireball,5,34.0,37.1686111,-113.6786111
1544,2002-10-14,19:05:00,madras,or,us,chevron,30,45.0,44.6336111,-121.1283333
1545,2002-10-14,19:05:00,medford,or,us,light,300,10.0,42.3266667,-122.8744444
1546,2002-10-14,19:05:00,murphys,ca,us,changing,60,7.0,38.1375,-120.4586111
1547,2002-10-14,19:10:00,fall river mills,ca,us,fireball,120,30.0,41.0047222,-121.4372222
1548,2002-10-14,19:30:00,anderson,ca,us,light,300,15.0,40.4483333,-122.2966667
1550,2002-10-14,19:30:00,goldendale,wa,us,disk,300,5.0,45.8208333,-120.8205556
1551,2002-10-14,19:30:00,las vegas,nv,us,sphere,60,2.0,36.175,-115.1363889
1552,2002-10-14,19:30:00,san jose,ca,us,other,120,15.0,37.3394444,-121.8938889
1555,2002-10-14,20:08:00,san jose,ca,us,unknown,16,1.0,37.3394444,-121.8938889
1556,2002-10-14,20:15:00,elmo,ut,us,circle,600,12.0,39.3897222,-110.8144444
1557,2002-10-14,20:15:00,gaysville,vt,us,cone,37800,5.0,43.7783333,-72.6994444
1558,2002-10-14,22:15:00,clarks summit,pa,us,circle,10,30.0,41.4886111,-75.7088889
1560,2003-10-14,11:30:00,yelm,wa,us,oval,900,1.0,46.9422222,-122.6047222
1562,2003-10-14,19:00:00,plains,pa,us,triangle,60,15.0,41.2752778,-75.8505556
1563,2003-10-14,19:58:00,san leandro,ca,us,light,10,1.0,37.725,-122.155
1564,2003-10-14,21:00:00,los angeles,ca,us,triangle,30,12.0,34.0522222,-118.2427778
1565,2003-10-14,21:24:00,orlando,fl,us,formation,15,10.0,28.5380556,-81.3794444
1566,2003-10-14,23:00:00,indianapolis,in,us,oval,1,2.0,39.7683333,-86.1580556
1568,2003-10-14,23:50:00,trego,wi,us,unknown,60,30.0,45.8997222,-91.8208333
1569,2004-10-14,02:30:00,needville,tx,us,light,60,23.0,29.3991667,-95.8375
1570,2004-10-14,14:20:00,reno,nv,us,changing,7200,1.0,39.5297222,-119.8127778
1571,2004-10-14,19:37:00,prescott (southwest of),az,us,light,7200,3.0,34.54,-112.4677778
1573,2005-10-14,01:00:00,columbus,oh,us,sphere,600,34.0,39.9611111,-82.9988889
1575,2005-10-14,06:40:00,amarillo,tx,us,sphere,420,2.0,35.2219444,-101.8308333
1576,2005-10-14,09:35:00,san antonio,tx,us,other,300,20.0,29.4238889,-98.4933333
1577,2005-10-14,13:30:00,littleton,co,us,circle,1800,35.0,39.6133333,-105.0161111
1578,2005-10-14,14:45:00,lenexa,ks,us,sphere,300,2.0,38.9536111,-94.7333333
1579,2005-10-14,18:55:00,bonner springs,ks,us,light,300,3.0,39.0597222,-94.8833333
1580,2005-10-14,19:45:00,lincoln (east of),mt,us,egg,1800,23.0,46.955,-112.6808333
1581,2005-10-14,21:00:00,correo,nm,us,light,900,1.0,34.955,-107.1841667
1582,2005-10-14,21:00:00,denver,co,us,light,300,10.0,39.7391667,-104.9841667
1583,2005-10-14,21:30:00,earp,ca,us,unknown,120,58.0,34.1647222,-114.3002778
1584,2005-10-14,21:30:00,park rapids,mn,us,triangle,1200,10.0,46.9222222,-95.0583333
1585,2006-10-14,01:25:00,jaffrey,nh,us,fireball,10,2.0,42.8138889,-72.0236111
1586,2006-10-14,02:00:00,waterbury,ct,us,fireball,5,30.0,41.5580556,-73.0519444
1587,2006-10-14,02:00:00,yuma,va,us,formation,300,30.0,36.615,-82.6125
1588,2006-10-14,02:24:00,fairfield,ct,us,fireball,4,1.0,41.1411111,-73.2641667
1589,2006-10-14,02:25:00,new york city (yonkers),ny,us,teardrop,120,5.0,40.7141667,-74.0063889
1591,2006-10-14,18:00:00,provincetown,ma,us,circle,180,3.0,42.0583333,-70.1791667
1592,2006-10-14,20:15:00,san diego,ca,us,fireball,30,1.0,32.7152778,-117.1563889
1593,2006-10-14,21:30:00,ogunquit,me,us,light,300,34.0,43.2488889,-70.5997222
1594,2006-10-14,22:00:00,buchanan,ga,us,light,300,45.0,33.8025,-85.1886111
1595,2006-10-14,23:56:00,beverly hills,fl,us,changing,600,5.0,28.9166667,-82.4583333
1596,2007-10-14,00:40:00,westfir,or,us,unknown,6,15.0,43.7575,-122.4952778
1600,2007-10-14,15:00:00,las vegas,nv,us,light,600,1.0,36.175,-115.1363889
1601,2007-10-14,16:00:00,honolulu,hi,us,light,10,5.0,21.3069444,-157.8583333
1602,2007-10-14,16:00:00,redondo beach,ca,us,circle,180,3.0,33.8491667,-118.3875
1603,2007-10-14,20:30:00,barbourville,ky,us,oval,18000,30.0,36.8663889,-83.8888889
1604,2007-10-14,21:14:00,little rock,ar,us,changing,15,1.0,34.7463889,-92.2894444
1605,2007-10-14,21:25:00,surprise,az,us,other,1.5,30.0,33.6305556,-112.3325
1606,2007-10-14,21:50:00,blairstown,nj,us,triangle,300,10.0,40.9827778,-74.9608333
1608,2008-10-14,01:00:00,austin,tx,us,sphere,1,30.0,30.2669444,-97.7427778
1609,2008-10-14,01:30:00,valparaiso,in,us,formation,5,5.0,41.4730556,-87.0611111
1610,2008-10-14,10:00:00,hemet,ca,us,formation,600,2.0,33.7475,-116.9711111
1612,2008-10-14,17:00:00,vallejo,ca,us,sphere,12,35.0,38.1041667,-122.2555556
1613,2008-10-14,17:30:00,narberth,pa,us,light,20,30.0,40.0083333,-75.2608333
1614,2008-10-14,20:00:00,boonville,ny,us,formation,180,3.0,43.4836111,-75.3369444
1615,2008-10-14,20:40:00,anderson,sc,us,chevron,75,1.0,34.5033333,-82.6502778
1617,2008-10-14,22:05:00,louisville,ky,us,disk,120,5.0,38.2541667,-85.7594444
1618,2008-10-14,22:35:00,manteca,ca,us,circle,300,5.0,37.7975,-121.215
1619,2009-10-14,01:30:00,fresno,ca,us,other,60,20.0,36.7477778,-119.7713889
1620,2009-10-14,02:20:00,honolulu,hi,us,circle,300,3.0,21.3069444,-157.8583333
1621,2009-10-14,09:00:00,concord,ca,us,changing,600,2.0,37.9780556,-122.03
1622,2009-10-14,19:00:00,avoca,mi,us,formation,240,5.0,43.0619444,-82.6911111
1623,2009-10-14,19:05:00,syracuse,ny,us,cross,180,30.0,43.0480556,-76.1477778
1624,2009-10-14,20:30:00,reno,nv,us,light,20,40.0,39.5297222,-119.8127778
1626,2009-10-14,22:00:00,creswell,or,us,fireball,45,1.0,43.9180556,-123.0233333
1628,2010-10-14,06:04:00,the colony,tx,us,light,3,20.0,33.0888889,-96.8861111
1629,2010-10-14,06:15:00,imperial,mo,us,formation,1200,10.0,38.3697222,-90.3783333
1630,2010-10-14,18:30:00,foley,al,us,cylinder,30,2.0,30.4063889,-87.6836111
1631,2010-10-14,19:20:00,mitchell,sd,us,light,120,2.0,43.7094444,-98.0294444
1632,2010-10-14,19:30:00,ripon,ca,us,triangle,480,30.0,37.7416667,-121.1233333
1633,2010-10-14,21:25:00,livermore,ca,us,light,90,2.0,37.6819444,-121.7669444
1637,2011-10-14,00:00:00,blackjack (north st. louis co.),mo,us,light,60,5.0,37.8722222,-93.7916667
1638,2011-10-14,00:00:00,ringgold,ga,us,unknown,1200,3.0,34.9158333,-85.1091667
1640,2011-10-14,02:30:00,carterville,mo,us,other,1800,30.0,37.1491667,-94.4427778
1641,2011-10-14,02:30:00,carterville,mo,us,other,1800,2.0,37.1491667,-94.4427778
1643,2011-10-14,05:00:00,whitakers,nc,us,triangle,240,4.0,36.1052778,-77.7130556
1644,2011-10-14,05:30:00,scottsdale,az,us,triangle,240,24.0,33.5091667,-111.8983333
1645,2011-10-14,09:42:00,elmer,nj,us,triangle,1200,2.0,39.595,-75.1705556
1646,2011-10-14,10:00:00,honolulu,hi,us,triangle,120,1.0,21.3069444,-157.8583333
1647,2011-10-14,10:30:00,coral springs,fl,us,other,120,15.0,26.2708333,-80.2708333
1648,2011-10-14,13:30:00,san bernardino,ca,us,sphere,60,5.0,34.1083333,-117.2888889
1649,2011-10-14,17:00:00,sierra vista,az,us,other,600,23.0,31.5544444,-110.3030556
1650,2011-10-14,17:45:00,ocala,fl,us,cylinder,240,23.0,29.1869444,-82.1402778
1652,2011-10-14,18:30:00,strawberry,az,us,flash,1.5,40.0,34.4077778,-111.4927778
1653,2011-10-14,19:30:00,ellisville,ms,us,unknown,900,10.0,31.6038889,-89.1955556
1654,2011-10-14,19:41:00,golden valley,az,us,oval,3,5.0,35.2233333,-114.2222222
1655,2011-10-14,19:41:00,golden valley,az,us,oval,4,10.0,35.2233333,-114.2222222
1657,2011-10-14,20:30:00,wendover (east of&#44 on i-80),ut,us,changing,1020,15.0,40.7372222,-114.0366667
1658,2011-10-14,20:35:00,eufaula,al,us,light,25,30.0,31.8911111,-85.1455556
1660,2011-10-14,22:30:00,tempe,az,us,sphere,300,10.0,33.4147222,-111.9086111
1661,2011-10-14,22:30:00,york,pa,us,triangle,2,10.0,39.9625,-76.7280556
1663,2011-10-15,00:00:00,cibecue (west of),az,us,light,300,10.0,34.0447222,-110.4847222
1664,2012-10-14,02:46:00,modesto,ca,us,diamond,120,10.0,37.6391667,-120.9958333
1665,2012-10-14,07:30:00,fort worth,tx,us,circle,60,1.0,32.7252778,-97.3205556
1666,2012-10-14,12:50:00,centralia,wa,us,egg,900,23.0,46.7163889,-122.9530556
1667,2012-10-14,13:37:00,sierra madre,ca,us,formation,180,15.0,34.1616667,-118.0519444
1668,2012-10-14,15:30:00,raleigh,nc,us,cylinder,60,2.0,35.7719444,-78.6388889
1669,2012-10-14,16:45:00,santa barbara,ca,us,light,900,12.0,34.4208333,-119.6972222
1670,2012-10-14,19:00:00,loveland,co,us,triangle,30,3.0,40.3977778,-105.0744444
1672,2012-10-14,20:00:00,easton,pa,us,fireball,1800,25.0,40.6883333,-75.2211111
1674,2012-10-14,21:00:00,el centro,ca,us,circle,1800,3.0,32.7919444,-115.5622222
1675,2012-10-14,21:15:00,newburgh,in,us,unknown,300,24.0,37.9444444,-87.4052778
1676,2012-10-14,21:30:00,elmore city,ok,us,unknown,600,5.0,34.6227778,-97.3961111
1677,2012-10-14,21:45:00,canyon lake,ca,us,unknown,600,15.0,33.685,-117.2722222
1678,2012-10-14,21:45:00,lakewood,nj,us,light,180,15.0,40.0977778,-74.2180556
1679,2012-10-14,21:45:00,toms river,nj,us,circle,10,5.0,39.9536111,-74.1983333
1680,2012-10-14,22:00:00,lake wales,fl,us,changing,2100,15.0,27.9011111,-81.5861111
1681,2012-10-14,22:00:00,lake wales,fl,us,changing,2100,15.0,27.9011111,-81.5861111
1682,2012-10-14,23:00:00,nanuet,ny,us,light,1.5,10.0,41.0886111,-74.0138889
1684,2013-10-14,00:35:00,forked river,nj,us,circle,60,2.0,39.8397222,-74.1905556
1685,2013-10-14,01:40:00,albuquerque,nm,us,flash,2700,10.0,35.0844444,-106.6505556
1686,2013-10-14,11:47:00,hampton,nh,us,cylinder,60,15.0,42.9375,-70.8394444
1687,2013-10-14,16:00:00,buckingham,pa,us,rectangle,600,4.0,40.3236111,-75.0602778
1690,2013-10-14,16:45:00,charlotte,nc,us,sphere,240,2.0,35.2269444,-80.8433333
1691,2013-10-14,18:00:00,vernon hills,il,us,cigar,240,25.0,42.2194444,-87.9794444
1692,2013-10-14,19:00:00,seaside,or,us,light,900,5.0,45.9933333,-123.9213889
1693,2013-10-14,19:15:00,oakland,ca,us,light,300,1.0,37.8044444,-122.2697222
1694,2013-10-14,19:30:00,green bay,wi,us,light,180,2.0,44.5191667,-88.0197222
1695,2013-10-14,19:30:00,ruston,la,us,sphere,900,2.0,32.5230556,-92.6377778
1697,2013-10-14,20:00:00,leland,mi,us,disk,120,5.0,45.0230556,-85.7597222
1698,2013-10-14,20:15:00,holgate,nj,us,circle,300,40.0,39.54,-74.2572222
1703,2013-10-14,23:00:00,warren,oh,us,circle,45,20.0,41.2375,-80.8186111
1704,1936-10-15,17:00:00,eklutna,ak,us,cigar,180,15.0,61.4580556,-149.3622222
1705,1943-10-15,11:00:00,owensboro,ky,us,rectangle,1800,15.0,37.7741667,-87.1133333
1706,1949-10-15,20:00:00,baltimore,md,us,cigar,180,5.0,39.2902778,-76.6125
1710,1953-10-15,14:00:00,mauriceville,tx,us,disk,300,2.0,30.2033333,-93.8661111
1712,1954-10-15,21:30:00,manistee,mi,us,circle,8,1.0,44.2444444,-86.3241667
1713,1955-10-15,20:00:00,rhinebeck,ny,us,light,2400,5.0,41.9266667,-73.9130556
1717,1957-10-15,20:30:00,houston (ellington afb),tx,us,light,3,30.0,29.7630556,-95.3630556
1719,1959-10-15,00:00:00,marysville,wa,us,other,75,5.0,48.0519444,-122.1758333
1720,1961-10-15,18:00:00,indialantic,fl,us,oval,120,10.0,28.0891667,-80.5658333
1721,1962-10-15,22:30:00,chicago,il,us,other,10,5.0,41.85,-87.65
1722,1964-10-15,00:00:00,columbus,oh,us,cigar,600,10.0,39.9611111,-82.9988889
1724,1965-10-15,21:00:00,tabor,ia,us,oval,2700,8.0,40.8983333,-95.6711111
1725,1966-10-15,02:00:00,boca raton (military trail),fl,us,circle,21600,10.0,26.3583333,-80.0833333
1726,1966-10-15,18:30:00,martinsville,in,us,disk,60,15.0,39.4277778,-86.4283333
1727,1966-10-15,19:00:00,running  springs,ca,us,disk,1200,22.0,34.2077778,-117.1083333
1728,1966-10-15,20:00:00,ukiah,or,us,oval,1200,10.0,45.1341667,-118.9313889
1729,1966-10-15,20:00:00,utica,ny,us,triangle,180,3.0,43.1008333,-75.2330556
1732,1967-10-15,18:00:00,birmingham,al,us,oval,300,10.0,33.5205556,-86.8025
1734,1967-10-15,21:00:00,hampstead,nc,us,disk,300,10.0,34.3675,-77.7108333
1735,1967-10-15,21:00:00,north hollywood,ca,us,fireball,900,30.0,34.1722222,-118.3780556
1736,1967-10-15,23:00:00,saugus,ca,us,light,180,4.0,34.4113889,-118.5391667
1737,1968-10-15,02:00:00,hastings,mn,us,triangle,120,12.0,44.7433333,-92.8522222
1738,1968-10-15,07:30:00,crystal lake,il,us,cigar,1800,45.0,42.2411111,-88.3161111
1739,1968-10-15,20:00:00,bancroft (rural area near),wi,us,light,120,10.0,44.3097222,-89.5136111
1741,1969-10-15,00:00:00,sharon,ct,us,oval,120,30.0,41.8791667,-73.4772222
1742,1969-10-15,06:00:00,pearl,ms,us,cigar,1200,5.0,32.2744444,-90.1319444
1743,1969-10-15,18:30:00,wilmington,de,us,circle,60,30.0,39.7458333,-75.5469444
1744,1969-10-15,19:00:00,hurst,tx,us,disk,60,15.0,32.8233333,-97.1702778
1745,1969-10-15,19:00:00,miami,fl,us,changing,120,5.0,25.7738889,-80.1938889
1746,1969-10-15,21:00:00,exeter (near),nh,us,cigar,1800,2.0,42.9813889,-70.9483333
1747,1969-10-15,23:30:00,alpine,az,us,disk,300,10.0,33.8480556,-109.1425
